name,district,latitude,longitude,proj_area,nbr_buildings,nbr_floors,units,hospital,price_sqm,id,bld_age,dist_shop_1,dist_shop_2,dist_shop_3,dist_shop_4,dist_shop_5,dist_school_1,dist_school_2,dist_school_3,dist_school_4,dist_school_5,dist_food_1,dist_food_2,dist_food_3,dist_food_4,dist_food_5,Elevator,Parking,Security,CCTV,Pool,Sauna,Gym,Garden,Playground,Shop,Restaurant,Wifi,tran_type1,tran_type2,tran_type3,tran_type4,tran_type5,tran_name1,tran_name2,tran_name3,tran_name4,tran_name5,dist_tran_1,dist_tran_2,dist_tran_3,dist_tran_4,dist_tran_5
101 Mansion,Bang Kapi,13.7874348,100.6315637,23371,5,5,834.0,2.1,10577,0,28,1.5,2.1,2.3,2.7,4.3,1.2,1.4,1.5,1.5,1.5,0.48,0.87,1.3,1.3,1.3,0,0,0,1,0,0,0,1,0,1,0,0,Lat Phrao Toll Plaza,Yothin Phatthana Toll Plaza,Pracha Uthit Toll Plaza,Sutthisan,Huai Khwang,Lat Phrao Toll Plaza,Yothin Phatthana Toll Plaza,Pracha Uthit Toll Plaza,Sutthisan,Huai Khwang,4.3,4.8,5.0,8.1,8.3
624 Condolette Ladprao,Bang Kapi,13.766348,100.649395,6476,2,8,471.0,1.8,49059,1,8,0.4,0.79,0.83,0.85,1.1,0.56,0.72,0.74,0.78,0.83,0.4,0.4,0.59,0.74,0.74,1,1,1,1,0,0,1,1,0,1,1,1,Lat Phrao Toll Plaza,Srinagarindra Toll Plaza,Pracha Uthit Toll Plaza,Huai Khwang,Thailand Cultural Centre,Lat Phrao Toll Plaza,Srinagarindra Toll Plaza,Pracha Uthit Toll Plaza,Huai Khwang,Thailand Cultural Centre,5.8,6.2,6.5,9.8,9.9
Adamas Ramkhamhaeng,Bang Kapi,13.7524478,100.61550720000001,4699,1,16,140.0,2.3,31129,2,24,0.003,0.003,0.002,0.002,0.91,0.64,0.64,0.73,0.85,0.87,0.3,0.51,0.52,0.53,0.58,1,1,1,1,0,0,0,0,0,1,0,1,Srinagarindra Toll Plaza,Ramkhamhaeng Toll Plaza,Phatthanakan 2 Toll Plaza,Phra Khanong,Ekkamai,Srinagarindra Toll Plaza,Ramkhamhaeng Toll Plaza,Phatthanakan 2 Toll Plaza,Phra Khanong,Ekkamai,2.1,2.5,2.9,6.1,6.3
Aspire Ladprao 113,Bang Kapi,13.770285999999999,100.638799,3816,1,8,270.0,0.68,87368,3,3,0.002,0.53,0.64,0.64,0.65,0.71,0.72,0.73,0.91,0.92,0.3,0.4,0.52,0.53,0.58,1,1,1,1,1,1,1,0,0,0,0,0,Lat Phrao Toll Plaza,Pracha Uthit Toll Plaza,Srinagarindra Toll Plaza,Sutthisan,Huai Khwang,Lat Phrao Toll Plaza,Pracha Uthit Toll Plaza,Srinagarindra Toll Plaza,Sutthisan,Huai Khwang,4.7,5.4,6.1,8.5,8.7
B.R. Condo,Bang Kapi,13.768706,100.63887599999998,7391,2,10,560.0,0.69,42597,4,28,0.002,0.5,0.66,0.71,0.73,0.63,0.74,0.79,0.99,1.0,0.18,0.37,0.5,0.53,0.53,1,1,1,1,0,0,0,0,0,1,0,0,Lat Phrao Toll Plaza,Pracha Uthit Toll Plaza,Srinagarindra Toll Plaza,Sutthisan,Huai Khwang,Lat Phrao Toll Plaza,Pracha Uthit Toll Plaza,Srinagarindra Toll Plaza,Sutthisan,Huai Khwang,4.7,5.4,6.1,8.5,8.6
Bangkapi Condotown,Bang Kapi,13.771784099999998,100.64467370000001,15161,5,11,1553.0,2.0,19071,5,27,0.084,0.66,0.96,1.2,1.2,0.24,0.56,0.92,1.3,1.3,0.39,0.92,0.92,0.92,0.92,1,1,1,1,0,0,0,0,0,1,0,0,Lat Phrao Toll Plaza,Srinagarindra Toll Plaza,Pracha Uthit Toll Plaza,Sutthisan,Huai Khwang,Lat Phrao Toll Plaza,Srinagarindra Toll Plaza,Pracha Uthit Toll Plaza,Sutthisan,Huai Khwang,6.0,6.5,6.7,9.8,10.0
Bangkok Horizon Ramkhamhaeng,Bang Kapi,13.762944899999999,100.6484782,5568,1,38,592.0,1.4,63000,6,9,0.48,0.64,1.0,1.1,1.3,0.28,0.37,0.71,0.8,0.94,0.28,0.39,0.44,0.48,0.54,1,1,1,1,1,1,1,1,0,1,1,1,Srinagarindra Toll Plaza,Lat Phrao Toll Plaza,Pracha Uthit Toll Plaza,Huai Khwang,Phra Khanong,Srinagarindra Toll Plaza,Lat Phrao Toll Plaza,Pracha Uthit Toll Plaza,Huai Khwang,Phra Khanong,5.8,6.1,6.3,9.4,9.8
Bliz Condominium Bearing,Bang Kapi,13.773062,100.63424609999998,1504,1,8,79.0,1.8,54741,7,7,1.5,1.5,2.4,2.8,4.9,1.1,1.3,2.2,2.5,2.5,1.3,1.6,1.6,1.6,1.6,1,1,1,1,1,0,1,0,0,0,0,0,Bearing,Bang Na,Bang Na Toll Plaza,Udom Suk,Pak Nam Toll Plaza-Outbound 2,Bearing,Bang Na,Bang Na Toll Plaza,Udom Suk,Pak Nam Toll Plaza-Outbound 2,1.4,2.2,3.4,3.5,3.6
Chewathai Ramkamhaeng,Bang Kapi,13.761382399999999,100.6331327,6400,1,36,400.0,0.46,89261,8,6,0.6,1.0,1.3,1.4,1.5,0.39,0.39,0.5,0.57,0.99,0.35,0.48,0.48,0.52,0.55,1,1,1,1,1,1,1,1,0,0,0,1,Srinagarindra Toll Plaza,Pracha Uthit Toll Plaza,Phatthanakan 2 Toll Plaza,Huai Khwang,Thailand Cultural Centre,Srinagarindra Toll Plaza,Pracha Uthit Toll Plaza,Phatthanakan 2 Toll Plaza,Huai Khwang,Thailand Cultural Centre,4.1,4.5,4.9,7.7,7.8
City Villa,Bang Kapi,13.7725975,100.62994,14368,8,9,1748.0,0.98,24184,9,22,1.1,1.2,2.0,1.7,1.8,0.63,0.66,0.87,0.89,0.95,0.23,0.101,0.13,0.57,0.57,1,1,1,1,1,0,0,1,1,1,1,0,Lat Phrao Toll Plaza,Pracha Uthit Toll Plaza,Srinagarindra Toll Plaza,Sutthisan,Huai Khwang,Lat Phrao Toll Plaza,Pracha Uthit Toll Plaza,Srinagarindra Toll Plaza,Sutthisan,Huai Khwang,3.7,4.4,5.7,7.5,7.7
Condo U @ Huamak Station,Bang Kapi,13.751934900000002,100.6365273,5300,2,8,408.0,1.3,53226,10,6,1.7,2.2,2.2,2.4,2.5,1.1,1.2,1.3,1.4,1.5,0.22,0.55,0.6,0.61,0.66,1,1,1,1,1,0,1,1,0,0,0,0,Srinagarindra Toll Plaza,Phatthanakan 2 Toll Plaza,Phatthanakan 1 Toll Plaza,Phra Khanong,Ekkamai,Srinagarindra Toll Plaza,Phatthanakan 2 Toll Plaza,Phatthanakan 1 Toll Plaza,Phra Khanong,Ekkamai,4.1,5.6,6.8,8.8,8.9
D Condo Ramkhamhaeng,Bang Kapi,13.7496291,100.6076671,17194,5,8,1114.0,1.1,63793,11,7,0.058,0.003,0.003,0.002,0.002,0.45,0.61,0.65,1.1,1.2,0.003,0.003,0.003,0.003,0.003,1,1,1,1,1,1,1,1,0,1,0,1,Srinagarindra Toll Plaza,Ramkhamhaeng Toll Plaza,Phatthanakan 2 Toll Plaza,Phra Khanong,Ekkamai,Srinagarindra Toll Plaza,Ramkhamhaeng Toll Plaza,Phatthanakan 2 Toll Plaza,Phra Khanong,Ekkamai,1.2,1.3,1.7,4.9,5.0
D Condo Ramkhamhaeng 64,Bang Kapi,13.764691899999999,100.65364699999999,14047,2,8,486.0,2.0,60505,12,6,1.0,1.0,1.2,1.2,1.6,0.7,0.7,0.77,0.77,0.81,0.094,0.094,0.17,0.17,0.25,1,1,1,1,1,0,1,1,0,0,0,0,Srinagarindra Toll Plaza,Srinagarindra Toll Plaza,Pracha Uthit Toll Plaza,Pracha Uthit Toll Plaza,Thap Chang Toll Plaza-Inbound,Srinagarindra Toll Plaza,Srinagarindra Toll Plaza,Pracha Uthit Toll Plaza,Pracha Uthit Toll Plaza,Thap Chang Toll Plaza-Inbound,6.4,6.4,6.8,6.8,7.0
Fak Khao Pode,Bang Kapi,13.757884299999999,100.63931219999999,14760,3,21,960.0,0.79,38288,13,15,0.62,1.1,1.3,1.4,1.5,1.4,1.4,1.4,1.4,1.5,0.44,0.58,0.63,0.71,0.81,1,1,1,1,0,0,0,1,1,1,1,1,Srinagarindra Toll Plaza,Pracha Uthit Toll Plaza,Phatthanakan 2 Toll Plaza,Phra Khanong,Ekkamai,Srinagarindra Toll Plaza,Pracha Uthit Toll Plaza,Phatthanakan 2 Toll Plaza,Phra Khanong,Ekkamai,4.9,5.6,6.0,9.2,9.4
Four Wings Residence,Bang Kapi,13.754499651486821,100.64594708717071,8332,1,26,470.0,1.7,93287,14,11,1.0,1.1,1.1,1.1,1.1,0.85,0.89,0.89,0.89,0.89,0.53,0.57,0.57,0.57,0.57,1,1,1,1,1,0,1,1,0,0,0,1,Srinagarindra Toll Plaza,Srinagarindra Toll Plaza,Srinagarindra Toll Plaza,Srinagarindra Toll Plaza,Srinagarindra Toll Plaza,Srinagarindra Toll Plaza,Srinagarindra Toll Plaza,Srinagarindra Toll Plaza,Srinagarindra Toll Plaza,Srinagarindra Toll Plaza,4.8,4.8,4.8,4.8,4.8
Garden Condo Huamark,Bang Kapi,13.7589029,100.6169983,4880,2,18,540.0,1.8,51006,15,13,0.026,0.11,0.93,3.0,3.0,0.3,0.3,0.36,0.36,0.39,0.018,0.35,0.35,0.35,0.38,1,1,1,1,1,0,1,0,0,0,0,1,Srinagarindra Toll Plaza,Ramkhamhaeng Toll Plaza,Pracha Uthit Toll Plaza,Huai Khwang,Thailand Cultural Centre,Srinagarindra Toll Plaza,Ramkhamhaeng Toll Plaza,Pracha Uthit Toll Plaza,Huai Khwang,Thailand Cultural Centre,2.4,2.7,2.7,5.9,6.0
H.R. Residence,Bang Kapi,13.77547,100.643378,35200,20,9,2812.0,2.9,15217,16,16,1.7,1.7,1.8,1.9,2.2,1.4,1.9,2.0,2.1,2.3,0.59,0.63,0.99,0.99,1.2,0,0,0,1,1,0,0,1,0,0,0,0,Lat Phrao Toll Plaza,Pracha Uthit Toll Plaza,Srinagarindra Toll Plaza,Sutthisan,Huai Khwang,Lat Phrao Toll Plaza,Pracha Uthit Toll Plaza,Srinagarindra Toll Plaza,Sutthisan,Huai Khwang,6.8,7.6,7.7,11.0,11.0
Happy Home,Bang Kapi,13.748245,100.6094502,32000,8,6,360.0,1.4,45054,17,12,0.51,0.002,0.002,0.003,0.003,0.65,0.71,0.88,1.2,1.2,0.5,0.51,0.51,0.51,0.002,1,1,1,1,0,0,0,0,0,0,0,0,Srinagarindra Toll Plaza,Ramkhamhaeng Toll Plaza,Phatthanakan 2 Toll Plaza,Phra Khanong,Ekkamai,Srinagarindra Toll Plaza,Ramkhamhaeng Toll Plaza,Phatthanakan 2 Toll Plaza,Phra Khanong,Ekkamai,0.9,1.6,2.0,5.2,5.4
Inspire Place ABAC-Rama IX,Bang Kapi,13.7549446,100.62613640000001,4924,2,19,639.0,2.0,48666,18,13,1.2,1.5,1.6,1.9,2.1,0.31,0.71,0.75,0.95,1.0,0.0,0.19,0.21,0.23,0.28,1,1,1,1,1,0,1,1,0,0,0,0,Srinagarindra Toll Plaza,Phatthanakan 2 Toll Plaza,Pracha Uthit Toll Plaza,Phra Khanong,Ekkamai,Srinagarindra Toll Plaza,Phatthanakan 2 Toll Plaza,Pracha Uthit Toll Plaza,Phra Khanong,Ekkamai,2.7,4.2,4.3,7.4,7.5
Le Celeste Rama 9-Srinakarin,Bang Kapi,13.748415,100.6457199,1776,1,8,69.0,1.0,47690,19,11,1.6,1.6,1.9,1.9,2.4,0.91,0.91,1.3,1.3,1.5,0.65,0.65,0.71,0.71,0.89,1,1,1,1,1,0,1,0,0,0,0,0,Srinagarindra Toll Plaza,Srinagarindra Toll Plaza,Phatthanakan 2 Toll Plaza,Phatthanakan 2 Toll Plaza,Phatthanakan 1 Toll Plaza,Srinagarindra Toll Plaza,Srinagarindra Toll Plaza,Phatthanakan 2 Toll Plaza,Phatthanakan 2 Toll Plaza,Phatthanakan 1 Toll Plaza,4.1,4.1,5.7,5.7,7.5
Lumpini Center Happyland,Bang Kapi,13.77384,100.64153,22428,3,8,470.0,1.6,45135,20,17,0.47,0.55,0.78,0.9,2.0,0.15,0.91,1.1,1.6,1.6,0.027,0.22,0.29,0.002,0.55,1,1,1,1,0,0,1,1,1,0,0,1,Lat Phrao Toll Plaza,Pracha Uthit Toll Plaza,Srinagarindra Toll Plaza,Sutthisan,Huai Khwang,Lat Phrao Toll Plaza,Pracha Uthit Toll Plaza,Srinagarindra Toll Plaza,Sutthisan,Huai Khwang,5.6,6.3,6.4,9.4,9.6
Lumpini Center Ladprao 111,Bang Kapi,13.771329999999999,100.637772,10028,7,7,856.0,0.042,36264,21,16,0.002,0.002,0.002,0.8,0.8,0.31,0.31,0.31,0.36,0.36,0.12,0.12,0.12,0.31,0.31,1,1,1,1,0,0,1,1,0,1,1,0,Lat Phrao Toll Plaza,Lat Phrao Toll Plaza,Lat Phrao Toll Plaza,Pracha Uthit Toll Plaza,Pracha Uthit Toll Plaza,Lat Phrao Toll Plaza,Lat Phrao Toll Plaza,Lat Phrao Toll Plaza,Pracha Uthit Toll Plaza,Pracha Uthit Toll Plaza,4.3,4.3,4.3,5.0,5.0
Lumpini Center Nawamin,Bang Kapi,13.778594,100.643136,5868,3,8,470.0,2.5,32439,22,13,1.4,1.4,1.5,1.6,1.8,1.1,1.1,1.6,1.7,1.7,0.25,0.28,0.65,0.65,0.9,1,1,1,1,0,0,1,0,0,1,0,1,Lat Phrao Toll Plaza,Pracha Uthit Toll Plaza,Yothin Phatthana Toll Plaza,Sutthisan,Huai Khwang,Lat Phrao Toll Plaza,Pracha Uthit Toll Plaza,Yothin Phatthana Toll Plaza,Sutthisan,Huai Khwang,6.5,7.2,7.4,10.0,10.0
Lumpini Ville Ramkhamhaeng 26,Bang Kapi,13.7537098,100.6310284,16656,5,8,998.0,1.7,49367,23,10,1.4,1.4,1.4,1.8,1.8,0.42,0.42,0.42,0.61,0.61,0.25,0.25,0.25,0.34,0.34,1,1,1,1,1,0,1,1,1,1,1,0,Srinagarindra Toll Plaza,Srinagarindra Toll Plaza,Srinagarindra Toll Plaza,Phatthanakan 2 Toll Plaza,Phatthanakan 2 Toll Plaza,Srinagarindra Toll Plaza,Srinagarindra Toll Plaza,Srinagarindra Toll Plaza,Phatthanakan 2 Toll Plaza,Phatthanakan 2 Toll Plaza,3.4,3.4,3.4,4.8,4.8
Lumpini Ville Ramkhamhaeng 44,Bang Kapi,13.762082000000001,100.64092159999998,7424,2,23,827.0,0.61,71077,24,11,0.45,0.45,0.59,0.59,0.89,0.82,0.82,0.85,0.85,1.0,0.26,0.26,0.45,0.45,0.47,1,1,1,1,1,1,1,1,1,1,1,0,Srinagarindra Toll Plaza,Srinagarindra Toll Plaza,Pracha Uthit Toll Plaza,Pracha Uthit Toll Plaza,Phatthanakan 2 Toll Plaza,Srinagarindra Toll Plaza,Srinagarindra Toll Plaza,Pracha Uthit Toll Plaza,Pracha Uthit Toll Plaza,Phatthanakan 2 Toll Plaza,5.0,5.0,5.5,5.5,5.8
Niran City,Bang Kapi,13.7834185,100.6336233,10712,8,9,225.0,3.1,19754,25,13,6.4,6.4,6.4,17.0,17.0,4.4,4.4,4.4,11.0,11.0,7.8,7.8,7.8,11.0,11.0,1,1,1,1,0,0,0,0,0,1,0,0,Bang Wa,Bang Wa,Bang Wa,Wutthakat,Wutthakat,Bang Wa,Bang Wa,Bang Wa,Wutthakat,Wutthakat,31.0,31.0,31.0,33.0,33.0
Plum Condo Ladprao 101,Bang Kapi,13.789471300000002,100.6267391,13484,12,5,712.0,1.8,60435,26,4,1.9,1.9,2.0,2.0,2.0,0.15,0.15,0.75,0.75,0.75,0.52,0.52,0.52,0.52,0.54,1,1,1,1,0,0,0,1,0,0,0,0,Lat Phrao Toll Plaza,Lat Phrao Toll Plaza,Yothin Phatthana Toll Plaza,Yothin Phatthana Toll Plaza,Pracha Uthit Toll Plaza,Lat Phrao Toll Plaza,Lat Phrao Toll Plaza,Yothin Phatthana Toll Plaza,Yothin Phatthana Toll Plaza,Pracha Uthit Toll Plaza,3.5,3.5,4.0,4.0,4.7
Prom Condominium,Bang Kapi,13.756232699999998,100.6492052,2870,1,7,112.0,2.2,133511,27,27,1.4,1.4,1.5,1.5,1.9,1.2,1.2,1.3,1.3,1.4,0.52,0.52,0.58,0.58,1.1,0,0,0,1,0,0,0,0,0,0,0,0,Srinagarindra Toll Plaza,Srinagarindra Toll Plaza,Phatthanakan 2 Toll Plaza,Phatthanakan 2 Toll Plaza,Pracha Uthit Toll Plaza,Srinagarindra Toll Plaza,Srinagarindra Toll Plaza,Phatthanakan 2 Toll Plaza,Phatthanakan 2 Toll Plaza,Pracha Uthit Toll Plaza,5.3,5.3,6.8,6.8,7.2
Prompimarn,Bang Kapi,13.7894908,100.6268346,10106,3,7,700.0,1.7,20827,28,25,1.7,1.7,1.8,1.8,2.2,0.15,0.15,0.92,0.92,0.92,0.34,0.34,0.7,0.7,0.72,1,1,1,1,0,0,0,0,0,0,0,0,Lat Phrao Toll Plaza,Lat Phrao Toll Plaza,Yothin Phatthana Toll Plaza,Yothin Phatthana Toll Plaza,Pracha Uthit Toll Plaza,Lat Phrao Toll Plaza,Lat Phrao Toll Plaza,Yothin Phatthana Toll Plaza,Yothin Phatthana Toll Plaza,Pracha Uthit Toll Plaza,3.3,3.3,3.8,3.8,4.5
Sukhapiban 3 Mansion,Bang Kapi,13.76114,100.6479,44583,1,19,1024.0,1.5,35837,29,25,0.52,0.92,1.1,1.2,1.3,0.42,0.55,0.92,1.0,1.1,0.63,0.002,0.73,0.74,0.78,1,1,1,1,0,0,1,0,0,1,0,0,Srinagarindra Toll Plaza,Pracha Uthit Toll Plaza,Phatthanakan 2 Toll Plaza,Huai Khwang,Phra Khanong,Srinagarindra Toll Plaza,Pracha Uthit Toll Plaza,Phatthanakan 2 Toll Plaza,Huai Khwang,Phra Khanong,5.9,6.3,6.7,9.5,9.9
Supalai City Resort Ramkhamhaeng,Bang Kapi,13.752462,100.61097099999999,8000,2,8,540.0,1.6,82588,30,9,0.003,0.002,0.002,0.003,0.21,0.21,0.38,0.62,0.68,0.72,0.17,0.18,0.19,0.002,0.002,1,1,1,1,1,0,1,1,0,1,1,0,Srinagarindra Toll Plaza,Ramkhamhaeng Toll Plaza,Phatthanakan 2 Toll Plaza,Phra Khanong,Ekkamai,Srinagarindra Toll Plaza,Ramkhamhaeng Toll Plaza,Phatthanakan 2 Toll Plaza,Phra Khanong,Ekkamai,1.4,1.8,2.2,5.4,5.6
The Base Rama 9 - Ramkhamhaeng,Bang Kapi,13.7479899,100.60597340000001,8764,1,35,924.0,0.86,98270,31,7,0.32,0.003,0.003,0.73,0.002,0.33,0.72,0.92,1.4,1.5,0.21,0.63,0.003,0.003,0.003,1,1,1,1,1,0,1,1,0,1,0,1,Srinagarindra Toll Plaza,Ramkhamhaeng Toll Plaza,Phatthanakan 2 Toll Plaza,Phra Khanong,Ekkamai,Srinagarindra Toll Plaza,Ramkhamhaeng Toll Plaza,Phatthanakan 2 Toll Plaza,Phra Khanong,Ekkamai,0.89,0.98,1.4,4.6,4.8
The Niche Citi Ladprao 130,Bang Kapi,13.770226999999998,100.6305957,6334,2,8,340.0,0.96,59193,32,9,2.0,1.4,1.5,1.7,1.9,0.52,0.84,0.92,1.1,1.1,0.3,0.13,0.43,0.47,0.002,1,1,1,1,1,0,1,1,0,0,0,0,Lat Phrao Toll Plaza,Pracha Uthit Toll Plaza,Srinagarindra Toll Plaza,Sutthisan,Huai Khwang,Lat Phrao Toll Plaza,Pracha Uthit Toll Plaza,Srinagarindra Toll Plaza,Sutthisan,Huai Khwang,4.0,4.7,5.5,7.8,7.9
The Niche ID Ladprao 130,Bang Kapi,13.771679999999998,100.630416,6530,2,8,370.0,1.0,50514,33,7,1.3,2.0,1.4,1.8,1.8,0.69,0.77,0.91,1.0,1.1,0.26,0.13,0.101,0.6,0.61,1,1,1,1,1,0,1,0,0,0,0,0,Lat Phrao Toll Plaza,Pracha Uthit Toll Plaza,Srinagarindra Toll Plaza,Sutthisan,Huai Khwang,Lat Phrao Toll Plaza,Pracha Uthit Toll Plaza,Srinagarindra Toll Plaza,Sutthisan,Huai Khwang,3.9,4.6,5.7,7.7,7.8
The Wellington,Bang Kapi,13.754824900000001,100.6395771,2856,1,7,79.0,1.2,54948,34,10,1.1,1.4,1.6,1.7,1.8,0.98,1.3,1.6,1.7,1.9,0.38,0.43,0.59,0.65,0.7,1,1,1,1,1,0,1,0,0,0,0,1,Srinagarindra Toll Plaza,Pracha Uthit Toll Plaza,Phatthanakan 2 Toll Plaza,Phra Khanong,Ekkamai,Srinagarindra Toll Plaza,Pracha Uthit Toll Plaza,Phatthanakan 2 Toll Plaza,Phra Khanong,Ekkamai,4.6,6.1,6.1,9.3,9.4
U Delight @ Huamak Station,Bang Kapi,13.751866199999998,100.6377307,9620,1,20,867.0,1.2,75363,35,5,1.6,2.2,2.2,2.4,2.5,1.1,1.2,1.3,1.4,1.5,0.19,0.52,0.57,0.58,0.63,1,1,1,1,1,1,1,1,0,1,1,1,Srinagarindra Toll Plaza,Phatthanakan 2 Toll Plaza,Phatthanakan 1 Toll Plaza,Phra Khanong,Ekkamai,Srinagarindra Toll Plaza,Phatthanakan 2 Toll Plaza,Phatthanakan 1 Toll Plaza,Phra Khanong,Ekkamai,4.0,5.5,6.8,8.7,8.9
Ussakan Place,Bang Kapi,13.765614999999999,100.653276,1974,9,8,540.0,2.1,57692,36,16,1.1,1.2,1.6,1.7,1.9,0.73,0.85,0.92,1.0,1.3,0.26,0.27,0.3,0.33,0.51,1,1,1,1,0,0,0,0,0,1,1,0,Srinagarindra Toll Plaza,Pracha Uthit Toll Plaza,Thap Chang Toll Plaza-Inbound,Huai Khwang,Phra Khanong,Srinagarindra Toll Plaza,Pracha Uthit Toll Plaza,Thap Chang Toll Plaza-Inbound,Huai Khwang,Phra Khanong,6.4,6.8,7.0,10.0,10.0
Bangkhae City,Bang Khae,13.710834,100.4110147,5738,3,8,900.0,2.0,19766,37,16,3.2,3.2,3.3,3.3,5.5,3.5,3.5,3.5,3.5,3.8,2.2,2.2,2.2,2.2,2.7,1,1,1,1,0,0,0,1,0,1,0,1,Wutthakat,Wutthakat,Talat Phlu,Talat Phlu,Bang Khun Thian Toll Plaza-Outbound 1,Wutthakat,Wutthakat,Talat Phlu,Talat Phlu,Bang Khun Thian Toll Plaza-Outbound 1,7.9,7.9,8.6,8.6,8.8
Fuse Sense' Bangkae,Bang Khae,13.711016,100.396394,9122,1,24,815.0,2.0,85479,38,4,75.0,3.9,4.5,4.6,6.6,3.6,4.5,4.7,4.7,4.8,3.0,3.4,2.0,2.0,2.0,1,1,1,1,1,0,1,1,1,0,0,1,Bang Khun Thian Toll Plaza-Outbound 1,Wutthakat,Talat Phlu,Bang Khun Thian Toll Plaza-Outbound 3,Bang Wa,Bang Khun Thian Toll Plaza-Outbound 1,Wutthakat,Talat Phlu,Bang Khun Thian Toll Plaza-Outbound 3,Bang Wa,9.0,9.3,9.9,13.0,15.0
Lumpini Condo Town Bangkhae,Bang Khae,13.7074598,100.42076,11200,4,8,791.0,2.0,46242,39,9,2.2,2.3,4.2,4.4,5.2,2.4,2.5,2.8,3.0,3.1,1.2,1.2,1.7,1.8,1.8,1,1,1,1,0,0,1,1,1,1,1,0,Wutthakat,Talat Phlu,Bang Khun Thian Toll Plaza-Outbound 1,Bang Khun Thian Toll Plaza-Inbound 1,Bang Khun Thian Toll Plaza-Outbound 2,Wutthakat,Talat Phlu,Bang Khun Thian Toll Plaza-Outbound 1,Bang Khun Thian Toll Plaza-Inbound 1,Bang Khun Thian Toll Plaza-Outbound 2,6.9,7.6,9.4,9.7,11.0
Plum Condo Bangkae,Bang Khae,13.710254,100.396221,3200,2,8,286.0,2.0,54010,40,5,75.0,3.9,4.5,4.6,6.6,3.6,4.5,4.6,4.7,4.7,3.0,2.0,2.0,3.4,2.0,1,1,1,1,1,0,1,1,0,1,0,0,Bang Khun Thian Toll Plaza-Outbound 1,Wutthakat,Talat Phlu,Bang Khun Thian Toll Plaza-Outbound 3,Bang Wa,Bang Khun Thian Toll Plaza-Outbound 1,Wutthakat,Talat Phlu,Bang Khun Thian Toll Plaza-Outbound 3,Bang Wa,9.0,9.2,9.9,13.0,15.0
The Parkland Phetkasem,Bang Khae,13.7106786,100.4085297,8170,1,28,895.0,2.0,102809,41,4,3.0,3.1,5.1,5.3,6.2,3.3,3.3,3.6,4.7,4.9,2.0,2.0,2.5,2.6,2.7,1,1,1,1,1,0,1,1,0,1,1,0,Wutthakat,Bang Khun Thian Toll Plaza-Outbound 1,Talat Phlu,Bang Khun Thian Toll Plaza-Outbound 3,Bang Wa,Wutthakat,Bang Khun Thian Toll Plaza-Outbound 1,Talat Phlu,Bang Khun Thian Toll Plaza-Outbound 3,Bang Wa,7.8,8.1,8.4,11.0,13.0
Baan Suan Bangkhen,Bang Khen,13.879629199999998,100.61031059999999,4925,1,6,690.5,2.0,21679,42,24,2.0,2.0,2.9,2.9,3.3,1.1,1.3,1.6,1.9,2.0,0.24,0.37,0.93,1.0,1.5,0,1,0,0,0,0,0,0,0,1,1,0,Lak Si Toll Plaza-Inbound,Lak Si Toll Plaza-Outbound,Don Mueang 2 Toll Plaza,Phahon Yothin,Lat Phrao,Lak Si Toll Plaza-Inbound,Lak Si Toll Plaza-Outbound,Don Mueang 2 Toll Plaza,Phahon Yothin,Lat Phrao,4.7,5.0,5.8,12.0,12.0
Casa de Sansara,Bang Khen,13.8841655,100.60544509999998,2000,1,8,690.5,0.96,28697,43,12,1.8,2.2,2.2,2.2,2.2,0.74,0.79,1.1,1.2,1.3,0.5,0.69,0.69,0.002,0.72,1,1,1,1,0,0,0,0,0,0,0,0,Lak Si Toll Plaza-Inbound,Don Mueang 2 Toll Plaza,Don Mueang 1 Toll Plaza,Phahon Yothin,Lat Phrao,Lak Si Toll Plaza-Inbound,Don Mueang 2 Toll Plaza,Don Mueang 1 Toll Plaza,Phahon Yothin,Lat Phrao,3.2,4.9,4.9,11.0,12.0
D Condo Ramindra,Bang Khen,13.853060399999999,100.6358916,14998,4,8,825.0,3.9,56606,44,7,0.76,0.83,1.1,1.3,1.5,0.83,0.003,0.83,1.2,1.5,0.019,0.077,0.24,0.26,0.39,1,1,1,1,1,1,1,1,0,1,0,0,Ram Inthra Toll Plaza 1,Ram Inthra Toll Plaza,Sukhaphiban 5-1 Toll Plaza,Lat Phrao,Ratchadaphisek,Ram Inthra Toll Plaza 1,Ram Inthra Toll Plaza,Sukhaphiban 5-1 Toll Plaza,Lat Phrao,Ratchadaphisek,0.88,2.0,4.9,11.0,12.0
Indra Mansion,Bang Khen,13.866620300000001,100.61282390000001,3184,2,6,382.0,4.2,23214,45,28,1.5,1.5,1.6,1.8,3.2,0.8,1.0,1.8,2.0,2.1,0.48,0.73,1.0,1.0,1.0,0,1,0,1,0,0,0,0,0,0,1,1,Ram Inthra Toll Plaza 1,Chaeng Watthana 1 Toll Plaza,Ram Inthra Toll Plaza,Phahon Yothin,Lat Phrao,Ram Inthra Toll Plaza 1,Chaeng Watthana 1 Toll Plaza,Ram Inthra Toll Plaza,Phahon Yothin,Lat Phrao,3.9,4.4,4.9,9.2,9.7
Lumpini Condo Town Ramindra - Latplakhao,Bang Khen,13.8626747,100.6133792,15600,4,8,1035.0,2.9,59327,46,7,0.2,0.21,1.8,1.9,2.8,0.56,0.57,0.57,0.8,0.89,0.18,0.21,0.0004,0.21,0.21,1,1,1,1,0,0,1,1,1,1,0,0,Chaeng Watthana 1 Toll Plaza,Lak Si Toll Plaza-Inbound,Chaeng Watthana 2 Toll Plaza,Phahon Yothin,Lat Phrao,Chaeng Watthana 1 Toll Plaza,Lak Si Toll Plaza-Inbound,Chaeng Watthana 2 Toll Plaza,Phahon Yothin,Lat Phrao,3.1,3.1,3.4,10.0,11.0
Lumpini Condo Town Ramintra - Laksi,Bang Khen,13.872564,100.6026141,20400,7,8,1568.0,3.0,51600,47,11,0.29,0.31,2.0,2.1,3.5,0.72,0.72,0.73,0.94,1.1,0.27,0.31,0.31,0.31,0.31,1,1,1,1,0,0,1,1,1,0,0,0,Chaeng Watthana 1 Toll Plaza,Lak Si Toll Plaza-Inbound,Chaeng Watthana 2 Toll Plaza,Phahon Yothin,Lat Phrao,Chaeng Watthana 1 Toll Plaza,Lak Si Toll Plaza-Inbound,Chaeng Watthana 2 Toll Plaza,Phahon Yothin,Lat Phrao,3.3,3.3,3.6,10.0,11.0
Lumpini Place Ramindra-Laksi,Bang Khen,13.871147500000001,100.60247070000001,7188,1,14,516.0,2.9,68079,48,9,0.24,0.24,0.24,0.26,0.26,0.6,0.6,0.6,0.61,0.61,0.22,0.22,0.22,0.26,0.26,1,1,1,1,1,1,1,0,0,1,0,1,Chaeng Watthana 1 Toll Plaza,Chaeng Watthana 1 Toll Plaza,Chaeng Watthana 1 Toll Plaza,Lak Si Toll Plaza-Inbound,Lak Si Toll Plaza-Inbound,Chaeng Watthana 1 Toll Plaza,Chaeng Watthana 1 Toll Plaza,Chaeng Watthana 1 Toll Plaza,Lak Si Toll Plaza-Inbound,Lak Si Toll Plaza-Inbound,3.2,3.2,3.2,3.2,3.2
Lumpini Ville Ramintra-Laksi,Bang Khen,13.872532999999999,100.6029147,12800,1,14,1271.0,2.9,56393,49,10,0.26,0.27,1.9,2.0,2.9,0.62,0.63,0.63,0.86,0.95,0.24,0.27,0.27,0.27,0.27,1,1,1,1,1,1,1,1,1,1,1,0,Chaeng Watthana 1 Toll Plaza,Lak Si Toll Plaza-Inbound,Chaeng Watthana 2 Toll Plaza,Phahon Yothin,Lat Phrao,Chaeng Watthana 1 Toll Plaza,Lak Si Toll Plaza-Inbound,Chaeng Watthana 2 Toll Plaza,Phahon Yothin,Lat Phrao,3.2,3.2,3.5,10.0,11.0
Regent Home 1 Phaholyothin 67,Bang Khen,13.8882008,100.6000877,6400,3,8,657.0,1.2,26206,50,12,1.9,1.9,2.4,2.4,2.4,0.87,0.87,0.98,0.98,1.2,0.7,0.7,0.9,0.9,0.002,1,1,1,1,1,0,1,0,0,0,0,0,Lak Si Toll Plaza-Inbound,Lak Si Toll Plaza-Inbound,Don Mueang 2 Toll Plaza,Don Mueang 2 Toll Plaza,Don Mueang 1 Toll Plaza,Lak Si Toll Plaza-Inbound,Lak Si Toll Plaza-Inbound,Don Mueang 2 Toll Plaza,Don Mueang 2 Toll Plaza,Don Mueang 1 Toll Plaza,2.6,2.6,4.3,4.3,4.3
Regent Home 11 Phaholyothin 67/1,Bang Khen,13.887363,100.602404,752,1,8,72.0,0.7,46167,51,8,1.5,1.9,2.2,2.3,4.1,0.65,0.83,0.87,1.1,1.3,0.36,0.55,0.002,0.64,0.64,1,1,1,1,1,0,1,1,0,1,0,1,Lak Si Toll Plaza-Inbound,Don Mueang 2 Toll Plaza,Don Mueang 1 Toll Plaza,Phahon Yothin,Lat Phrao,Lak Si Toll Plaza-Inbound,Don Mueang 2 Toll Plaza,Don Mueang 1 Toll Plaza,Phahon Yothin,Lat Phrao,3.2,4.3,4.6,12.0,13.0
Regent Home 15 Changwattana,Bang Khen,13.877283499999999,100.5941615,12400,2,14,1358.0,2.3,50300,52,7,0.54,0.62,0.68,0.76,1.2,0.17,0.25,0.62,0.67,0.71,0.33,0.41,0.002,0.46,0.002,1,1,1,1,1,0,1,1,0,0,0,0,Chaeng Watthana 1 Toll Plaza,Lak Si Toll Plaza-Inbound,Chaeng Watthana 1 Toll Plaza,Lak Si Toll Plaza-Inbound,Chaeng Watthana 2 Toll Plaza,Chaeng Watthana 1 Toll Plaza,Lak Si Toll Plaza-Inbound,Chaeng Watthana 1 Toll Plaza,Lak Si Toll Plaza-Inbound,Chaeng Watthana 2 Toll Plaza,1.9,1.9,2.0,2.0,2.2
Regent Home 16 Phaholyotin 67,Bang Khen,13.887108999999999,100.599908,828,1,8,79.0,1.0,36751,53,7,1.6,1.9,2.1,2.4,4.1,0.68,0.79,1.0,1.2,1.4,0.54,0.74,0.002,0.77,0.8,1,1,1,1,0,0,1,0,0,0,0,1,Lak Si Toll Plaza-Inbound,Don Mueang 2 Toll Plaza,Don Mueang 1 Toll Plaza,Phahon Yothin,Lat Phrao,Lak Si Toll Plaza-Inbound,Don Mueang 2 Toll Plaza,Don Mueang 1 Toll Plaza,Phahon Yothin,Lat Phrao,3.0,4.1,4.5,11.0,12.0
Regent Home 3,Bang Khen,13.879824,100.597615,4344,1,8,162.0,1.6,40443,54,11,1.0,1.1,1.4,1.5,2.4,0.26,0.5,0.9,1.1,1.1,0.44,0.44,0.44,0.44,0.44,1,1,1,1,1,0,1,0,0,1,1,0,Chaeng Watthana 1 Toll Plaza,Lak Si Toll Plaza-Inbound,Lak Si Toll Plaza-Outbound,Phahon Yothin,Lat Phrao,Chaeng Watthana 1 Toll Plaza,Lak Si Toll Plaza-Inbound,Lak Si Toll Plaza-Outbound,Phahon Yothin,Lat Phrao,2.4,2.4,2.7,11.0,12.0
Silk Place,Bang Khen,13.8785769,100.5983313,4068,1,15,274.0,1.5,94470,55,5,1.1,1.2,1.4,1.4,2.5,0.31,0.56,0.81,1.0,1.0,0.26,0.26,0.26,0.26,0.26,1,1,1,1,1,0,1,1,1,0,0,1,Lak Si Toll Plaza-Inbound,Lak Si Toll Plaza-Outbound,Chaeng Watthana 1 Toll Plaza,Phahon Yothin,Lat Phrao,Lak Si Toll Plaza-Inbound,Lak Si Toll Plaza-Outbound,Chaeng Watthana 1 Toll Plaza,Phahon Yothin,Lat Phrao,2.2,2.4,2.5,9.8,11.0
Smart Condo Watcharapol,Bang Khen,13.858725,100.6458312,11200,4,8,724.0,4.0,37344,56,8,0.52,0.85,0.92,1.1,2.1,0.85,0.003,0.85,1.5,1.5,0.23,0.35,0.36,0.39,0.43,1,1,1,1,0,0,0,1,1,1,0,1,Ram Inthra Toll Plaza 1,Sukhaphiban 5-1 Toll Plaza,Ram Inthra Toll Plaza,Lat Phrao,Ratchadaphisek,Ram Inthra Toll Plaza 1,Sukhaphiban 5-1 Toll Plaza,Ram Inthra Toll Plaza,Lat Phrao,Ratchadaphisek,0.8,3.5,3.5,13.0,13.0
We Condo Ekkamai-Ramindra,Bang Khen,13.847095999999999,100.64063900000001,18088,5,8,1168.0,4.2,72527,57,5,2.0,2.1,2.4,2.5,2.6,1.5,1.7,2.0,2.1,3.0,1.4,1.4,1.5,1.6,1.7,1,1,1,1,1,0,1,1,0,0,0,0,Ram Inthra Toll Plaza,Ram Inthra Toll Plaza 1,Yothin Phatthana Toll Plaza,Lat Phrao,Ratchadaphisek,Ram Inthra Toll Plaza,Ram Inthra Toll Plaza 1,Yothin Phatthana Toll Plaza,Lat Phrao,Ratchadaphisek,1.3,2.1,3.9,11.0,11.0
August Condo Charoenkrung 80,Bang Kho Laem,13.700004999999999,100.49632690000001,7483,2,8,406.0,0.95,71278,58,5,0.96,0.96,0.96,1.4,1.4,0.21,0.21,0.21,0.71,0.71,0.72,0.72,0.72,0.73,0.73,1,1,1,1,1,0,1,1,0,1,0,0,Chan Toll Plaza,Chan Toll Plaza,Chan Toll Plaza,Wong Wian Yai,Wong Wian Yai,Chan Toll Plaza,Chan Toll Plaza,Chan Toll Plaza,Wong Wian Yai,Wong Wian Yai,3.2,3.2,3.2,3.6,3.6
Aumnuayrak Condominium,Bang Kho Laem,13.6966976,100.5043217,9553,1,9,304.0,1.6,24857,59,21,0.25,0.87,3.0,3.0,2.8,0.44,0.69,0.9,1.0,1.1,0.71,0.98,1.0,1.1,1.1,1,1,1,1,0,0,0,0,0,0,0,0,Chan Toll Plaza,Rama 3 Toll Plaza,Saphan Taksin,Krung Thon Buri,Wong Wian Yai,Chan Toll Plaza,Rama 3 Toll Plaza,Saphan Taksin,Krung Thon Buri,Wong Wian Yai,2.6,3.2,4.0,4.2,4.4
Baan Charoenkrung,Bang Kho Laem,13.703588,100.507787,4200,2,9,154.0,2.2,29818,60,21,0.8,1.1,1.4,2.2,2.3,0.54,0.56,0.68,0.69,0.69,0.006,0.006,0.36,0.63,0.7,1,1,1,1,0,0,0,0,0,0,0,0,Chan Toll Plaza,Sathon Toll Plaza,Surasak,Saphan Taksin,Rama 3 Toll Plaza,Chan Toll Plaza,Sathon Toll Plaza,Surasak,Saphan Taksin,Rama 3 Toll Plaza,2.0,2.7,2.9,3.1,4.0
Canapaya Residences,Bang Kho Laem,13.688423,100.51440100000002,6604,1,57,188.0,2.6,224957,61,1,0.98,1.0,3.0,3.0,2.5,0.43,0.79,1.6,1.8,2.1,0.69,0.79,0.79,0.97,1.2,1,1,1,1,1,1,1,1,1,0,0,1,Rama 3 Toll Plaza,Sathu Pradit 2 Toll Plaza,Sathu Pradit 3 Toll Plaza,Surasak,Saphan Taksin,Rama 3 Toll Plaza,Sathu Pradit 2 Toll Plaza,Sathu Pradit 3 Toll Plaza,Surasak,Saphan Taksin,1.2,2.3,2.4,4.2,4.6
Charoenkrung Place,Bang Kho Laem,13.697443300000002,100.49531440000001,5600,2,8,182.0,0.6,35961,62,10,1.1,1.3,3.0,3.0,1.6,0.44,0.72,0.001,0.8,1.6,0.38,0.46,0.62,0.74,1.1,1,1,1,1,1,0,1,1,0,1,0,1,Chan Toll Plaza,Rama 3 Toll Plaza,Wong Wian Yai,Krung Thon Buri,Suk Sawat Toll Plaza,Chan Toll Plaza,Rama 3 Toll Plaza,Wong Wian Yai,Krung Thon Buri,Suk Sawat Toll Plaza,3.3,3.6,3.8,5.4,5.8
Chatrium,Bang Kho Laem,13.71023,100.51093,14400,1,36,260.0,2.2,165714,63,12,0.74,0.86,1.3,1.4,2.1,0.24,0.39,0.4,0.41,0.47,0.18,0.077,0.005,0.4,0.45,1,1,1,1,1,1,1,0,0,0,1,0,Chan Toll Plaza,Sathon Toll Plaza,Surasak,Saphan Taksin,Surawong Toll Plaza,Chan Toll Plaza,Sathon Toll Plaza,Surasak,Saphan Taksin,Surawong Toll Plaza,1.1,1.7,1.8,2.0,2.2
Lumpini Place Rama III-Charoen Krung,Bang Kho Laem,13.692468599999998,100.50164240000001,4660,2,9,312.0,1.6,146228,64,15,0.003,0.003,0.003,0.003,0.003,0.51,0.51,0.51,0.51,1.0,0.082,0.082,0.082,0.082,0.22,1,1,1,1,1,0,1,0,0,0,0,0,Rama 3 Toll Plaza,Rama 3 Toll Plaza,Rama 3 Toll Plaza,Rama 3 Toll Plaza,Chan Toll Plaza,Rama 3 Toll Plaza,Rama 3 Toll Plaza,Rama 3 Toll Plaza,Rama 3 Toll Plaza,Chan Toll Plaza,2.2,2.2,2.2,2.2,2.9
Lumpini Place Rama III-Riverview,Bang Kho Laem,13.690532999999999,100.505125,1332,1,19,497.0,1.5,73645,65,14,0.003,0.003,1.2,1.7,2.8,0.52,1.0,1.3,1.0,1.3,0.088,0.22,0.33,0.39,0.51,1,1,1,1,1,0,1,1,0,1,1,0,Rama 3 Toll Plaza,Chan Toll Plaza,Saphan Taksin,Wong Wian Yai,Krung Thon Buri,Rama 3 Toll Plaza,Chan Toll Plaza,Saphan Taksin,Wong Wian Yai,Krung Thon Buri,2.2,2.9,4.6,5.0,5.9
Menam Residences,Bang Kho Laem,13.7060543,100.50688570000001,8373,1,54,294.0,1.8,206075,66,3,0.079,0.71,1.7,1.8,1.9,0.19,0.19,0.21,0.24,0.64,0.14,0.17,0.18,0.24,0.26,1,1,1,1,1,1,1,1,1,0,0,1,Chan Toll Plaza,Sathon Toll Plaza,Saphan Taksin,Wong Wian Yai,Krung Thon Buri,Chan Toll Plaza,Sathon Toll Plaza,Saphan Taksin,Wong Wian Yai,Krung Thon Buri,1.6,2.3,2.6,3.0,3.7
River Heaven,Bang Kho Laem,13.701101300000001,100.5014005,9600,4,27,521.0,1.0,96132,67,15,0.26,0.89,1.0,3.0,2.1,0.088,0.44,0.52,0.001,0.56,0.2,0.3,0.4,0.4,0.41,1,1,1,1,1,1,1,1,0,1,0,1,Chan Toll Plaza,Sathon Toll Plaza,Saphan Taksin,Wong Wian Yai,Rama 3 Toll Plaza,Chan Toll Plaza,Sathon Toll Plaza,Saphan Taksin,Wong Wian Yai,Rama 3 Toll Plaza,2.5,3.1,3.4,3.8,4.0
Star View,Bang Kho Laem,13.687327499999999,100.5179101,11300,2,54,556.0,3.1,131919,68,5,0.56,0.88,3.0,3.0,2.3,0.4,0.96,1.1,2.2,2.5,1.1,1.2,1.2,1.2,1.3,1,1,1,1,1,1,1,1,1,0,0,0,Rama 3 Toll Plaza,Sathu Pradit 2 Toll Plaza,Sathu Pradit 3 Toll Plaza,Surasak,Saphan Taksin,Rama 3 Toll Plaza,Sathu Pradit 2 Toll Plaza,Sathu Pradit 3 Toll Plaza,Surasak,Saphan Taksin,0.68,1.8,1.9,4.5,5.0
Supalai Casa Riva,Bang Kho Laem,13.6950454,100.4946793,22400,4,55,822.0,0.044,79727,69,12,1.2,1.4,3.0,3.0,1.9,0.55,0.83,0.001,1.1,1.9,0.072,0.45,0.57,0.85,1.2,1,1,1,1,1,1,1,1,1,1,1,0,Talat Phlu,Chan Toll Plaza,Rama 3 Toll Plaza,Wong Wian Yai,Suk Sawat Toll Plaza,Talat Phlu,Chan Toll Plaza,Rama 3 Toll Plaza,Wong Wian Yai,Suk Sawat Toll Plaza,3.4,3.4,3.7,4.1,6.1
Supalai Lite Sathorn - Charoenrat,Bang Kho Laem,13.7018274,100.5164037,6880,1,26,565.0,2.5,92286,70,4,0.9,1.1,1.5,1.6,2.0,1.1,1.1,1.2,1.4,1.8,0.19,0.8,0.9,0.9,0.9,1,1,1,1,1,1,1,1,1,1,1,1,Chan Toll Plaza,Sathon Toll Plaza,Surasak,Saphan Taksin,Rama 3 Toll Plaza,Chan Toll Plaza,Sathon Toll Plaza,Surasak,Saphan Taksin,Rama 3 Toll Plaza,0.9,1.7,2.1,2.6,3.3
Than Living Sathorn - Charoenrat,Bang Kho Laem,13.7005889,100.5156812,6400,1,36,523.0,2.6,89263,71,2,0.99,0.99,0.99,0.99,1.2,0.97,0.97,0.97,0.97,1.2,0.29,0.29,0.29,0.29,0.59,1,1,1,1,1,0,1,1,1,1,0,1,Chan Toll Plaza,Chan Toll Plaza,Chan Toll Plaza,Chan Toll Plaza,Sathon Toll Plaza,Chan Toll Plaza,Chan Toll Plaza,Chan Toll Plaza,Chan Toll Plaza,Sathon Toll Plaza,0.99,0.99,0.99,0.99,1.8
Smart Condo @ Rama 2,Bang Khun Thian,13.6581639,100.42840670000001,35903,8,8,2202.0,1.2,34483,72,10,2.0,2.0,2.0,1.8,6.0,0.96,1.1,1.1,1.2,1.4,0.74,0.75,0.95,1.1,1.2,1,1,1,1,1,1,1,1,1,1,1,0,Bang Khun Thian Toll Plaza-Inbound 1,Bang Khun Thian Toll Plaza-Inbound 2,Bang Khun Thian Toll Plaza-Outbound 1,Wutthakat,Talat Phlu,Bang Khun Thian Toll Plaza-Inbound 1,Bang Khun Thian Toll Plaza-Inbound 2,Bang Khun Thian Toll Plaza-Outbound 1,Wutthakat,Talat Phlu,3.2,3.9,6.0,9.1,10.0
Tangduan Condominium,Bang Khun Thian,13.663704300000001,100.45047459999999,5526,4,5,840.0,1.8,75214,73,29,2.0,2.0,2.0,2.8,4.1,0.51,1.6,1.7,1.8,1.9,1.4,1.5,1.5,1.6,1.7,0,1,1,1,0,0,0,0,0,1,0,0,Bang Khun Thian Toll Plaza-Inbound 1,Bang Khun Thian Toll Plaza-Inbound 2,Wutthakat,Talat Phlu,Bang Khun Thian Toll Plaza-Outbound 1,Bang Khun Thian Toll Plaza-Inbound 1,Bang Khun Thian Toll Plaza-Inbound 2,Wutthakat,Talat Phlu,Bang Khun Thian Toll Plaza-Outbound 1,5.6,6.4,7.7,8.5,8.7
@ City,Bang Na,13.6843522,100.61479809999999,11292,5,14,799.0,2.0,50880,74,10,0.31,0.31,0.31,0.66,0.66,1.2,1.2,1.2,1.6,1.6,0.099,0.099,0.099,1.011,1.011,1,1,1,1,1,0,1,1,1,1,1,0,Punna Withi,Punna Withi,Punna Withi,Udom Suk,Udom Suk,Punna Withi,Punna Withi,Punna Withi,Udom Suk,Udom Suk,1.1,1.1,1.1,1.1,1.1
@ City Sukhumvit 101/1,Bang Na,13.684349300000001,100.61492120000001,11292,5,14,799.0,0.002,55833,75,10,0.28,0.31,0.53,0.53,0.79,0.83,1.5,1.7,1.7,1.8,0.28,0.32,0.32,0.099,0.39,1,1,1,1,1,0,1,0,1,0,0,0,Udom Suk,Punna Withi,Bang Chak,Bang Na Toll Plaza,Bangchak Toll Plaza,Udom Suk,Punna Withi,Bang Chak,Bang Na Toll Plaza,Bangchak Toll Plaza,0.56,0.67,1.7,1.9,2.0
Abstracts Sukhumvit 66/1,Bang Na,13.679875,100.607099,1580,2,5,56.0,0.002,96905,76,8,0.3,0.99,1.0,1.3,1.3,1.4,1.6,1.6,1.8,2.0,0.54,0.103,0.89,1.0,1.1,1,1,1,1,1,0,1,1,0,0,0,0,Udom Suk,Bangchak Toll Plaza,Punna Withi,Bang Na Toll Plaza,Bang Na,Udom Suk,Bangchak Toll Plaza,Punna Withi,Bang Na Toll Plaza,Bang Na,0.38,1.4,1.4,1.7,1.7
Bangna Complex,Bang Na,13.6715169,100.6359828,35948,1,20,272.0,0.34,37930,77,32,0.57,0.57,1.8,1.9,2.1,1.1,1.2,1.2,1.9,1.9,0.075,0.21,0.23,0.34,0.34,1,1,1,1,1,1,1,0,0,1,1,0,Bang Na KM. 6 Toll Plaza-Inbound,Bang Na,Udom Suk,Bang Na Toll Plaza,Punna Withi,Bang Na KM. 6 Toll Plaza-Inbound,Bang Na,Udom Suk,Bang Na Toll Plaza,Punna Withi,3.5,3.9,3.9,4.0,5.0
Bangna Place,Bang Na,13.672746,100.595703,6896,4,9,336.0,2.0,24742,78,23,1.1,2.5,2.9,3.0,3.2,0.87,0.97,1.2,1.2,2.3,0.97,0.98,1.0,1.2,1.3,1,1,1,1,1,0,1,0,0,0,0,0,Bang Na Toll Plaza,Bang Na,Bangchak Toll Plaza,Udom Suk,Bearing,Bang Na Toll Plaza,Bang Na,Bangchak Toll Plaza,Udom Suk,Bearing,1.4,2.0,2.1,2.2,2.8
Bangna Residence,Bang Na,13.674655599999998,100.59910529999999,6744,2,30,410.0,2.0,38398,79,16,1.2,1.9,2.3,2.3,2.6,0.34,0.57,0.92,1.3,1.7,0.38,0.62,0.69,1.0,1.1,1,1,1,1,1,1,1,1,1,0,0,0,Bang Na Toll Plaza,Bang Na,Udom Suk,Bangchak Toll Plaza,Bearing,Bang Na Toll Plaza,Bang Na,Udom Suk,Bangchak Toll Plaza,Bearing,1.0,1.4,1.6,1.7,2.2
Beyond Sukhumvit,Bang Na,13.676644199999998,100.60343929999999,2400,1,8,180.0,2.0,80619,80,4,1.8,2.0,2.4,2.5,2.7,0.25,0.46,1.5,1.8,1.9,0.5,0.74,0.81,1.4,1.6,1,1,1,1,1,0,1,1,0,0,0,1,Bang Na Toll Plaza,Bang Na,Udom Suk,Bangchak Toll Plaza,Punna Withi,Bang Na Toll Plaza,Bang Na,Udom Suk,Bangchak Toll Plaza,Punna Withi,1.3,1.5,1.7,2.1,2.8
Cassia,Bang Na,13.657983999999999,100.60623100000001,963,1,8,77.0,1.5,67916,81,6,1.8,1.8,2.4,2.8,3.9,0.84,1.8,1.9,2.4,2.8,0.72,1.7,1.8,1.9,1.9,1,1,1,1,1,0,1,0,0,0,0,0,Bearing,Bang Na,Bang Na Toll Plaza,Udom Suk,Bangchak Toll Plaza,Bearing,Bang Na,Bang Na Toll Plaza,Udom Suk,Bangchak Toll Plaza,1.1,1.9,3.1,3.2,3.9
Centric Scene Sukhumvit 64,Bang Na,13.6835188,100.61040759999999,3112,1,22,234.0,2.0,94498,82,10,0.004,0.35,0.55,0.55,0.97,0.72,1.7,1.7,1.8,1.9,0.32,0.36,0.36,0.41,0.42,1,1,1,1,1,0,1,0,0,0,0,1,Punna Withi,Udom Suk,Bang Chak,Bangchak Toll Plaza,Bang Na Toll Plaza,Punna Withi,Udom Suk,Bang Chak,Bangchak Toll Plaza,Bang Na Toll Plaza,0.61,0.73,1.6,1.8,2.1
City Home Srinakarin,Bang Na,13.654805599999998,100.64764,17699,6,12,1320.0,0.21,36789,83,7,1.1,1.1,1.6,1.6,3.7,1.7,1.7,1.7,1.7,1.8,0.3,0.3,0.41,0.41,0.41,1,1,1,1,1,0,1,0,0,0,0,1,Bearing,Bearing,Bang Na,Bang Na,Udom Suk,Bearing,Bearing,Bang Na,Bang Na,Udom Suk,5.4,5.4,6.0,6.0,6.4
City Home Sukhumvit,Bang Na,13.681913,100.610323,11200,6,8,966.0,0.002,68943,84,11,0.43,0.46,0.57,0.68,0.68,0.96,1.5,1.6,1.8,1.9,0.24,0.43,0.48,0.48,0.099,1,1,1,1,1,0,1,0,0,1,0,0,Udom Suk,Punna Withi,Bang Na,Bangchak Toll Plaza,Bang Na Toll Plaza,Udom Suk,Punna Withi,Bang Na,Bangchak Toll Plaza,Bang Na Toll Plaza,0.33,0.83,1.7,1.7,1.8
Country Complex,Bang Na,13.673274,100.59925799999999,25600,3,23,718.0,2.0,33230,85,26,1.4,2.0,2.3,2.4,2.6,0.38,0.62,1.2,1.5,1.7,0.39,0.63,0.73,1.3,1.3,1,1,1,1,1,1,1,1,1,1,1,1,Bang Na Toll Plaza,Bang Na,Udom Suk,Bangchak Toll Plaza,Bearing,Bang Na Toll Plaza,Bang Na,Udom Suk,Bangchak Toll Plaza,Bearing,1.2,1.4,1.6,2.0,2.2
Ideo Blucove Sukhumvit,Bang Na,13.6785144,100.60887259999998,5852,1,18,422.0,0.002,123773,86,7,0.45,0.82,0.88,1.1,1.1,1.1,1.2,1.4,1.4,1.5,0.18,0.103,0.42,0.82,0.85,1,1,1,1,1,0,1,1,1,1,0,0,Udom Suk,Bang Na,Punna Withi,Bang Na Toll Plaza,Bangchak Toll Plaza,Udom Suk,Bang Na,Punna Withi,Bang Na Toll Plaza,Bangchak Toll Plaza,0.13,1.2,1.3,1.3,1.5
Ideo Mix Sukhumvit 103,Bang Na,13.6809827,100.6100224,12560,2,21,1172.0,0.002,118689,87,9,0.52,0.54,0.57,0.79,0.79,1.1,1.4,1.4,1.6,1.8,0.14,0.103,0.54,0.58,0.58,1,1,1,1,1,0,1,1,0,1,0,0,Udom Suk,Punna Withi,Bang Na,Bangchak Toll Plaza,Bang Na Toll Plaza,Udom Suk,Punna Withi,Bang Na,Bangchak Toll Plaza,Bang Na Toll Plaza,0.3,0.94,1.5,1.6,1.7
Ideo Mobi Sukhumvit Eastgate,Bang Na,13.665705800000001,100.603767,6472,1,30,849.0,0.27,143333,88,3,2.0,2.0,2.0,2.4,2.4,0.56,0.72,1.3,1.7,1.7,0.48,0.81,1.1,1.1,1.3,1,1,1,1,1,0,1,1,0,0,0,0,Bang Na,Bearing,Bang Na Toll Plaza,Udom Suk,Bangchak Toll Plaza,Bang Na,Bearing,Bang Na Toll Plaza,Udom Suk,Bangchak Toll Plaza,0.34,0.52,1.6,1.6,2.3
KnightsBridge,Bang Na,13.657705900000002,100.60361479999999,2224,1,25,276.0,1.2,100333,89,4,1.4,1.4,2.5,2.8,3.6,0.49,1.4,1.5,2.4,2.4,1.1,1.5,1.5,1.5,1.5,1,1,1,1,1,1,1,1,0,0,0,0,Bearing,Bang Na,Bang Na Toll Plaza,Udom Suk,Pak Nam Toll Plaza-Outbound 2,Bearing,Bang Na,Bang Na Toll Plaza,Udom Suk,Pak Nam Toll Plaza-Outbound 2,0.72,1.6,2.8,2.9,3.5
La Salle Condominium,Bang Na,13.6607888,100.6061368,1908,1,6,77.0,0.94,81272,90,28,2.1,2.1,2.9,3.1,3.3,0.81,1.2,2.2,2.3,2.4,0.11,1.4,1.5,2.0,2.0,0,1,1,1,1,0,1,1,0,1,0,0,Bearing,Bang Na,Bang Na Toll Plaza,Udom Suk,Bangchak Toll Plaza,Bearing,Bang Na,Bang Na Toll Plaza,Udom Suk,Bangchak Toll Plaza,0.61,1.3,2.5,2.6,3.3
La Salle Park,Bang Na,13.661559699999998,100.6221462,5502,4,8,700.0,1.0,33042,91,13,1.2,1.8,1.9,2.6,2.6,0.056,1.0,1.2,2.4,1.0,0.48,0.52,0.55,0.64,0.92,1,1,1,1,1,0,1,0,1,0,0,0,Bearing,Bang Na,Bang Na Toll Plaza,Udom Suk,Bangchak Toll Plaza,Bearing,Bang Na,Bang Na Toll Plaza,Udom Suk,Bangchak Toll Plaza,2.6,3.3,3.6,3.6,4.3
Lumpini Ville Lasalle-Barring,Bang Na,13.661083499999998,100.62399140000001,11876,4,15,1028.0,1.0,57548,92,7,0.97,1.7,1.7,2.4,2.4,0.24,0.79,1.0,2.6,1.0,0.28,0.31,0.34,0.72,0.77,1,1,1,1,1,0,1,1,1,1,1,0,Bearing,Bang Na,Bang Na Toll Plaza,Udom Suk,Bangchak Toll Plaza,Bearing,Bang Na,Bang Na Toll Plaza,Udom Suk,Bangchak Toll Plaza,2.8,3.5,3.8,3.8,4.5
Majestique,Bang Na,13.681835000000001,100.609757,7328,2,25,620.0,0.002,21230,93,8,0.49,0.55,0.56,0.78,0.78,1.0,1.5,1.5,1.8,1.9,0.26,0.52,0.57,0.57,0.103,1,1,1,1,1,0,1,1,1,0,0,0,Udom Suk,Punna Withi,Bangchak Toll Plaza,Bang Na,Bang Na Toll Plaza,Udom Suk,Punna Withi,Bangchak Toll Plaza,Bang Na,Bang Na Toll Plaza,0.32,0.93,1.6,1.6,1.7
Metro Sky Sukhumvit,Bang Na,13.675860605484939,100.61090617724312,6992,3,26,588.0,0.002,113636,94,5,1.1,1.1,1.1,1.4,1.4,1.1,1.1,1.1,1.2,1.2,0.7,0.7,0.7,0.76,0.76,1,1,1,1,1,0,1,0,1,0,0,1,Udom Suk,Udom Suk,Udom Suk,Bang Na,Bang Na,Udom Suk,Udom Suk,Udom Suk,Bang Na,Bang Na,0.72,0.72,0.72,1.3,1.3
My Condo Sukhumvit 103,Bang Na,13.678384,100.62382779999999,5284,2,8,336.0,2.0,59467,95,10,0.55,1.4,101.0,1.7,2.3,0.43,0.88,1.1,1.4,1.4,0.17,0.22,0.84,0.86,0.97,1,1,1,1,0,0,1,1,0,1,0,0,Udom Suk,Punna Withi,Bang Na,Bang Na Toll Plaza,Bangchak Toll Plaza,Udom Suk,Punna Withi,Bang Na,Bang Na Toll Plaza,Bangchak Toll Plaza,1.7,2.5,2.9,3.0,3.1
Notting Hill,Bang Na,13.658198,100.60596899999996,1532,1,8,157.0,1.5,79875,96,6,1.8,1.8,2.4,2.7,3.9,0.79,1.8,1.8,2.4,2.7,0.69,1.6,1.8,1.8,1.8,1,1,1,1,1,0,1,1,0,0,0,0,Bearing,Bang Na,Bang Na Toll Plaza,Udom Suk,Bangchak Toll Plaza,Bearing,Bang Na,Bang Na Toll Plaza,Udom Suk,Bangchak Toll Plaza,1.0,1.9,3.1,3.2,3.8
Regent Home 7 Sukhumvit,Bang Na,13.675166,100.603803,23815,9,8,1745.0,0.002,41840,97,9,1.5,1.9,1.9,2.1,2.2,0.57,0.98,1.3,1.7,1.8,0.22,0.43,0.56,0.82,1.2,1,1,1,1,1,0,1,0,1,1,0,0,Bang Na Toll Plaza,Bang Na,Bangchak Toll Plaza,Udom Suk,Bearing,Bang Na Toll Plaza,Bang Na,Bangchak Toll Plaza,Udom Suk,Bearing,0.3,0.99,1.0,1.2,1.8
S&S Sukhumvit,Bang Na,13.684164,100.61480999999999,11108,2,18,810.0,2.0,70249,98,9,0.26,0.62,0.82,0.82,1.3,1.1,1.5,1.6,1.7,1.8,0.099,1.011,0.55,0.58,0.59,1,1,1,1,1,0,1,1,0,0,0,0,Punna Withi,Udom Suk,Bang Chak,Bangchak Toll Plaza,Bang Na Toll Plaza,Punna Withi,Udom Suk,Bang Chak,Bangchak Toll Plaza,Bang Na Toll Plaza,1.0,1.1,2.0,2.2,2.5
Sense Sukhumvit,Bang Na,13.678022,100.606912,2864,1,8,149.0,0.002,80000,99,10,0.84,1.2,1.3,1.5,1.5,1.2,1.3,1.4,1.6,1.7,0.5,0.56,0.103,0.9,0.95,1,1,1,1,1,1,1,0,0,0,0,0,Udom Suk,Bang Na,Bang Na Toll Plaza,Punna Withi,Bangchak Toll Plaza,Udom Suk,Bang Na,Bang Na Toll Plaza,Punna Withi,Bangchak Toll Plaza,0.51,1.3,1.4,1.6,1.9
Sunshine Condominium,Bang Na,13.665579699999999,100.632215,2864,2,8,252.0,1.6,40000,100,12,3.0,2.0,3.0,2.0,3.3,1.6,1.6,2.4,2.4,2.9,1.0,1.0,1.1,1.1,1.1,1,1,1,1,1,0,1,0,0,0,0,0,Bang Kaeo Toll Plaza-Outbound,Bang Kaeo Toll Plaza-Outbound,Bang Kaeo Toll Plaza-Outbound 3,Bang Kaeo Toll Plaza-Outbound 3,Bang Kaeo Toll Plaza-Inbound,Bang Kaeo Toll Plaza-Outbound,Bang Kaeo Toll Plaza-Outbound,Bang Kaeo Toll Plaza-Outbound 3,Bang Kaeo Toll Plaza-Outbound 3,Bang Kaeo Toll Plaza-Inbound,1.1,1.1,1.7,1.7,4.4
Supalai City Resort Bearing Station Sukumvit 105,Bang Na,13.661478599999999,100.6059405,4825,2,8,334.0,0.67,79967,101,5,1.8,1.9,2.7,3.0,3.1,0.54,0.97,2.0,2.1,2.4,0.26,1.1,1.7,1.7,1.8,1,1,1,1,1,0,1,0,0,0,0,1,Bearing,Bang Na,Bang Na Toll Plaza,Udom Suk,Bangchak Toll Plaza,Bearing,Bang Na,Bang Na Toll Plaza,Udom Suk,Bangchak Toll Plaza,0.34,1.0,2.3,2.3,3.0
The Coast Condominium,Bang Na,13.6712089,100.6058375,13864,2,39,820.0,0.002,125714,102,7,1.3,1.7,1.7,1.9,1.9,0.62,1.0,1.0,1.5,1.5,0.32,0.34,0.58,0.61,1.0,1,1,1,1,1,0,1,1,0,1,0,1,Bang Na,Bang Na Toll Plaza,Udom Suk,Bearing,Bangchak Toll Plaza,Bang Na,Bang Na Toll Plaza,Udom Suk,Bearing,Bangchak Toll Plaza,0.68,0.84,0.97,1.5,1.6
The Excel Bearing,Bang Na,13.6618777,100.6039389,800,1,8,60.0,0.45,82105,103,5,1.5,1.6,2.4,2.8,2.9,0.35,0.75,1.8,1.8,2.2,0.44,0.94,1.5,1.5,1.5,1,1,1,1,1,0,1,0,0,0,0,0,Bearing,Bang Na,Bang Na Toll Plaza,Udom Suk,Bangchak Toll Plaza,Bearing,Bang Na,Bang Na Toll Plaza,Udom Suk,Bangchak Toll Plaza,0.042,0.79,2.0,2.1,2.8
The Excel Hybrid,Bang Na,13.660268499999999,100.6060543,1260,1,8,73.0,1.0,71637,104,4,2.1,2.2,2.7,3.0,3.3,0.87,1.3,2.2,2.3,2.3,0.17,1.5,1.6,2.0,2.0,1,1,1,1,1,0,1,1,0,0,0,0,Bearing,Bang Na,Bang Na Toll Plaza,Udom Suk,Bangchak Toll Plaza,Bearing,Bang Na,Bang Na Toll Plaza,Udom Suk,Bangchak Toll Plaza,0.67,1.3,2.6,2.6,3.3
The Gallery Bearing,Bang Na,13.657465099999998,100.6042635,2188,1,27,269.0,1.8,92190,105,4,1.5,1.5,1.5,1.5,2.3,1.0,1.0,1.4,1.4,2.1,1.2,1.2,1.6,1.6,1.6,1,1,1,1,1,1,1,1,0,0,0,0,Bearing,Bearing,Bang Na,Bang Na,Bang Na Toll Plaza,Bearing,Bearing,Bang Na,Bang Na,Bang Na Toll Plaza,1.3,1.3,2.1,2.1,3.3
The Knight by Knightsbridge,Bang Na,13.657770900000001,100.6058232,1240,2,8,124.0,1.5,96754,106,5,1.8,1.8,2.4,2.7,3.9,0.79,1.8,1.8,2.5,2.7,0.78,1.7,1.8,1.8,1.8,1,1,1,1,1,0,1,1,0,0,0,1,Bearing,Bang Na,Bang Na Toll Plaza,Udom Suk,Bangchak Toll Plaza,Bearing,Bang Na,Bang Na Toll Plaza,Udom Suk,Bangchak Toll Plaza,1.0,1.9,3.1,3.1,3.8
The Sky Sukhumvit,Bang Na,13.675919,100.6079238,9019,4,26,732.0,0.002,134077,107,4,0.78,1.1,1.2,1.4,1.4,0.84,1.0,1.1,1.3,1.7,0.37,0.47,0.55,0.6,0.103,1,1,1,1,1,0,1,1,0,0,0,0,Udom Suk,Bang Na,Bang Na Toll Plaza,Punna Withi,Bangchak Toll Plaza,Udom Suk,Bang Na,Bang Na Toll Plaza,Punna Withi,Bangchak Toll Plaza,0.42,0.94,1.1,1.5,1.8
The Teak Bangna-Trad,Bang Na,13.670673999999998,100.62456,1332,1,7,79.0,1.0,326922,108,6,1.4,1.4,1.7,2.7,101.0,0.001,0.82,0.86,1.4,1.4,0.39,0.7,0.98,0.98,13.0,1,1,1,1,1,1,1,0,0,0,0,1,Bang Na,Udom Suk,Bang Na Toll Plaza,Bangchak Toll Plaza,Punna Withi,Bang Na,Udom Suk,Bang Na Toll Plaza,Bangchak Toll Plaza,Punna Withi,2.6,2.6,2.7,3.4,3.7
Voque Place Sukhumvit 107,Bang Na,13.657731400000001,100.60162159999999,2400,1,8,168.0,1.0,80258,109,3,1.3,1.4,2.9,3.4,3.4,0.31,1.3,1.4,2.3,2.4,1.0,1.4,1.4,1.4,1.4,1,1,1,1,1,0,1,1,0,0,0,0,Bearing,Bang Na,Bang Na Toll Plaza,Udom Suk,Bangchak Toll Plaza,Bearing,Bang Na,Bang Na Toll Plaza,Udom Suk,Bangchak Toll Plaza,0.54,1.4,2.6,2.7,3.3
Bang Ao Riverside,Bang Phlat,13.8043793,100.51320159999999,17204,4,8,754.0,0.6,195123,110,23,0.4,2.9,3.2,3.3,3.8,0.56,0.57,0.58,0.93,0.93,0.15,0.25,0.26,0.4,0.65,1,1,1,1,1,0,0,0,0,1,1,0,Yan Phahon Yothin Toll Plaza,Khlong Prapa 2 Toll Plaza,Bang Sue,Khlong Prapa 1 Toll Plaza,Kamphaeng Phet,Yan Phahon Yothin Toll Plaza,Khlong Prapa 2 Toll Plaza,Bang Sue,Khlong Prapa 1 Toll Plaza,Kamphaeng Phet,5.8,6.0,6.1,6.3,6.3
Bangkok River Marina,Bang Phlat,13.789130100000001,100.5019185,25217,1,33,106.0,1.1,91955,111,26,1.5,1.6,2.0,2.1,2.1,0.16,0.34,0.55,0.6,0.68,0.49,0.49,0.5,0.5,0.5,1,1,1,1,1,1,1,1,1,0,0,0,Khlong Prapa 2 Toll Plaza,Khlong Prapa 1 Toll Plaza,Yommarat Toll Plaza,Bang Sue,Ari,Khlong Prapa 2 Toll Plaza,Khlong Prapa 1 Toll Plaza,Yommarat Toll Plaza,Bang Sue,Ari,4.3,4.6,5.6,5.9,6.1
Bangyeekhan Condominium,Bang Phlat,13.772426000000001,100.49264699999999,9650,2,9,338.0,2.4,32554,112,23,1.0,1.3,1.4,2.3,2.4,0.52,0.61,0.7,0.85,0.95,0.28,0.44,0.78,0.87,0.99,1,1,1,1,0,0,0,0,0,1,0,0,Yommarat Toll Plaza,Uruphong Toll Plaza,Phaya Thai,Ratchathewi,Hua Lamphong,Yommarat Toll Plaza,Uruphong Toll Plaza,Phaya Thai,Ratchathewi,Hua Lamphong,4.2,4.7,5.3,5.4,5.6
City Home Ratchada-Pinklao,Bang Phlat,13.804177800000001,100.512051,26500,7,28,2018.0,0.45,45000,113,9,0.25,3.0,3.0,3.2,3.6,0.4,0.44,0.55,0.66,0.79,0.24,0.25,0.44,0.45,0.45,1,1,1,1,1,0,1,1,1,1,0,1,Bang Sue,Khlong Prapa 2 Toll Plaza,Khlong Prapa 1 Toll Plaza,Yan Phahon Yothin Toll Plaza,Kamphaeng Phet,Bang Sue,Khlong Prapa 2 Toll Plaza,Khlong Prapa 1 Toll Plaza,Yan Phahon Yothin Toll Plaza,Kamphaeng Phet,5.3,5.9,6.1,6.7,7.1
Ivy Residence Pinklao,Bang Phlat,13.770514000000002,100.484875,2707,1,20,199.0,1.6,110390,114,9,0.31,0.33,0.99,1.5,1.5,0.62,1.1,1.2,1.4,1.4,0.31,0.31,0.32,0.013,0.43,1,1,1,1,1,1,1,1,1,1,1,1,Yommarat Toll Plaza,Uruphong Toll Plaza,Hua Lamphong,Hua Lamphong Toll Plaza,Ratchathewi,Yommarat Toll Plaza,Uruphong Toll Plaza,Hua Lamphong,Hua Lamphong Toll Plaza,Ratchathewi,4.8,5.2,5.6,5.8,6.0
Lumpini Park Pinklao,Bang Phlat,13.780819000000001,100.47505600000001,19200,2,30,2707.0,1.0,75328,115,8,0.33,0.34,0.52,0.55,1.5,0.56,0.57,0.81,0.87,1.2,0.12,0.46,0.47,0.49,0.5,1,1,1,1,1,1,1,1,1,1,1,1,Yommarat Toll Plaza,Uruphong Toll Plaza,Hua Lamphong,Ratchathewi,Khlong Prapa 2 Toll Plaza,Yommarat Toll Plaza,Uruphong Toll Plaza,Hua Lamphong,Ratchathewi,Khlong Prapa 2 Toll Plaza,6.4,6.8,7.2,7.5,8.2
Lumpini Place Pinklao 1,Bang Phlat,13.7747929,100.4808298,4932,1,22,580.0,2.0,71259,116,13,0.57,0.57,0.71,0.71,0.75,0.45,0.45,0.87,0.87,0.88,0.32,0.32,0.0003,0.0002,0.0003,1,1,1,1,1,0,1,1,1,0,0,0,Yommarat Toll Plaza,Yommarat Toll Plaza,Uruphong Toll Plaza,Uruphong Toll Plaza,Hua Lamphong,Yommarat Toll Plaza,Yommarat Toll Plaza,Uruphong Toll Plaza,Uruphong Toll Plaza,Hua Lamphong,5.5,5.5,5.9,5.9,6.3
Lumpini Place Pinklao 2,Bang Phlat,13.774826000000001,100.480756,5700,1,26,651.0,1.9,74996,117,12,0.55,0.68,0.7,0.72,0.73,0.43,0.75,0.87,1.4,1.5,0.21,0.41,0.0003,0.0003,0.0002,1,1,1,1,1,1,1,0,0,0,0,0,Yommarat Toll Plaza,Uruphong Toll Plaza,Hua Lamphong,Hua Lamphong Toll Plaza,Ratchathewi,Yommarat Toll Plaza,Uruphong Toll Plaza,Hua Lamphong,Hua Lamphong Toll Plaza,Ratchathewi,5.4,5.9,6.3,6.4,6.6
Lumpini Place Rama VIII,Bang Phlat,13.772670000000002,100.49188300000004,19718,2,13,1121.0,2.3,79143,118,10,0.87,1.2,1.2,2.2,2.3,0.71,0.73,0.83,1.1,1.1,0.15,0.3,0.65,0.74,0.85,1,1,1,1,1,0,1,1,0,0,1,1,Yommarat Toll Plaza,Uruphong Toll Plaza,Ratchathewi,Hua Lamphong,Phaya Thai,Yommarat Toll Plaza,Uruphong Toll Plaza,Ratchathewi,Hua Lamphong,Phaya Thai,4.1,4.5,5.3,5.5,5.6
Lumpini Suite Rama Vlll,Bang Phlat,13.772886600000001,100.4916156,19718,1,12,182.0,2.2,78571,119,10,0.82,1.2,1.2,2.1,2.2,0.68,0.74,0.88,1.1,1.1,0.18,0.33,0.6,0.69,0.81,1,1,1,1,1,0,1,1,0,0,0,0,Yommarat Toll Plaza,Uruphong Toll Plaza,Ratchathewi,Hua Lamphong,Phaya Thai,Yommarat Toll Plaza,Uruphong Toll Plaza,Ratchathewi,Hua Lamphong,Phaya Thai,4.1,4.6,5.3,5.5,5.7
My Condo Pinklao,Bang Phlat,13.7754364,100.48353,7168,4,8,420.0,2.3,87512,120,10,0.63,0.76,0.8,1.1,1.2,0.5,0.83,0.98,1.1,1.1,0.048,0.49,0.54,0.61,0.62,1,1,1,1,0,0,1,0,0,0,0,0,Yommarat Toll Plaza,Uruphong Toll Plaza,Hua Lamphong,Ratchathewi,Khlong Prapa 2 Toll Plaza,Yommarat Toll Plaza,Uruphong Toll Plaza,Hua Lamphong,Ratchathewi,Khlong Prapa 2 Toll Plaza,5.5,5.9,6.4,6.7,6.9
Pinklao Pavilion,Bang Phlat,13.784339000000001,100.476279,11579,2,8,234.0,1.2,45519,121,11,0.95,0.96,1.1,1.2,2.1,0.76,1.0,2.0,2.2,2.3,0.67,0.75,0.79,0.84,0.99,0,1,1,1,0,0,1,0,0,0,0,1,Yommarat Toll Plaza,Uruphong Toll Plaza,Hua Lamphong,Ratchathewi,Phaya Thai,Yommarat Toll Plaza,Uruphong Toll Plaza,Hua Lamphong,Ratchathewi,Phaya Thai,7.0,7.4,7.8,8.1,8.5
Rattanakosin View Mansion,Bang Phlat,13.763788126962194,100.4909622552948,34364,1,34,121.0,1.2,73836,122,27,1.1,1.1,1.2,1.2,2.4,0.18,0.43,0.6,0.98,1.0,0.16,0.31,0.49,0.53,0.56,1,1,1,1,1,0,1,1,1,0,0,1,Yommarat Toll Plaza,Uruphong Toll Plaza,Ratchathewi,National Stadium,Hua Lamphong,Yommarat Toll Plaza,Uruphong Toll Plaza,Ratchathewi,National Stadium,Hua Lamphong,4.0,4.4,5.1,5.3,5.3
Thana Arcadia,Bang Phlat,13.775357000000001,100.484759,2820,1,23,244.0,2.3,95280,123,6,0.55,0.79,0.92,1.3,1.4,0.68,0.79,0.97,1.1,1.2,0.15,0.49,0.55,0.6,0.62,1,1,1,1,1,1,1,1,0,1,0,0,Yommarat Toll Plaza,Uruphong Toll Plaza,Hua Lamphong,Ratchathewi,Khlong Prapa 2 Toll Plaza,Yommarat Toll Plaza,Uruphong Toll Plaza,Hua Lamphong,Ratchathewi,Khlong Prapa 2 Toll Plaza,5.5,5.9,6.5,6.6,6.8
Thana Tri,Bang Phlat,13.774061999999999,100.4848559,2660,2,8,76.0,2.4,79240,124,11,0.62,0.87,1.0,1.4,1.5,0.76,0.87,1.0,1.1,1.3,0.22,0.41,0.56,0.67,0.69,1,1,1,1,1,1,1,1,0,0,0,1,Yommarat Toll Plaza,Uruphong Toll Plaza,Hua Lamphong,Phaya Thai,Ratchathewi,Yommarat Toll Plaza,Uruphong Toll Plaza,Hua Lamphong,Phaya Thai,Ratchathewi,5.5,6.0,6.6,6.7,6.7
Thew River Place,Bang Phlat,13.776829600000001,100.49712120000001,9600,1,30,200.0,2.3,74967,125,10,1.8,2.1,2.2,2.6,2.7,0.15,0.24,0.32,0.62,0.71,0.89,1.1,1.1,1.1,1.2,1,1,1,1,1,0,1,1,0,0,1,1,Yommarat Toll Plaza,Uruphong Toll Plaza,Ratchathewi,Phaya Thai,Victory Monument,Yommarat Toll Plaza,Uruphong Toll Plaza,Ratchathewi,Phaya Thai,Victory Monument,4.0,4.3,5.2,5.3,5.7
Baan Siri Silom,Bang Rak,13.7208417,100.5213074,2172,1,25,137.0,0.55,125000,126,13,1.5,1.5,1.6,1.6,1.8,0.35,0.35,0.54,0.54,0.65,0.48,0.48,0.5,0.5,0.53,1,1,1,1,1,1,1,1,1,0,0,0,Surasak,Surasak,Sathon Toll Plaza,Sathon Toll Plaza,Saphan Taksin,Surasak,Surasak,Sathon Toll Plaza,Sathon Toll Plaza,Saphan Taksin,0.4,0.4,0.64,0.64,1.0
Collezio Sathorn-Pipat,Bang Rak,13.723304999999998,100.53184399999999,1300,1,8,95.0,0.64,146341,127,8,0.79,1.6,1.8,2.3,2.5,0.46,0.52,0.99,1.1,1.1,0.43,0.43,0.51,0.52,0.54,1,1,1,1,1,1,1,1,0,0,0,0,Chong Nonsi,Sala Daeng,Si Lom,Sathon Toll Plaza,Saphan Sawang Toll Plaza,Chong Nonsi,Sala Daeng,Si Lom,Sathon Toll Plaza,Saphan Sawang Toll Plaza,0.41,0.94,1.4,1.8,2.3
Condolette Light Convent,Bang Rak,13.725222899999999,100.5331073,1782,1,8,111.0,0.96,154695,128,6,1.1,1.7,1.7,2.1,2.2,0.56,0.78,1.1,1.1,1.1,0.43,0.51,0.57,0.63,0.74,1,1,1,1,1,0,1,1,0,0,0,0,Chong Nonsi,Sala Daeng,Si Lom,Sathon Toll Plaza,Saphan Sawang Toll Plaza,Chong Nonsi,Sala Daeng,Si Lom,Sathon Toll Plaza,Saphan Sawang Toll Plaza,0.5,0.71,1.1,2.1,2.3
Diamond Tower,Bang Rak,13.724639000000002,100.52955899999999,3516,1,23,100.0,0.79,79710,129,34,0.94,1.6,1.7,2.4,2.4,0.61,0.86,1.1,1.2,1.2,0.58,0.58,0.69,0.7,0.73,1,1,1,1,1,1,1,1,0,1,0,1,Chong Nonsi,Sala Daeng,Sam Yan,Sathon Toll Plaza,Surawong Toll Plaza,Chong Nonsi,Sala Daeng,Sam Yan,Sathon Toll Plaza,Surawong Toll Plaza,0.24,0.87,1.4,1.9,2.1
Focus on Saladaeng,Bang Rak,13.7268414,100.5371483,812,1,8,62.0,0.74,160443,130,8,1.3,1.7,1.8,1.8,1.9,0.7,0.7,0.79,0.91,0.94,0.56,0.57,0.6,0.61,0.64,1,1,1,1,1,0,1,0,0,0,0,0,Si Lom,Sala Daeng,Lumphini,Rama 4-2 Toll Plaza,Rama 4-1 Toll Plaza,Si Lom,Sala Daeng,Lumphini,Rama 4-2 Toll Plaza,Rama 4-1 Toll Plaza,0.72,0.75,1.0,1.9,2.0
Ivy Sathorn 10,Bang Rak,13.723707999999998,100.52671099999999,2136,1,29,300.0,0.35,130667,131,10,1.0,1.8,1.9,2.3,2.3,0.49,0.72,0.74,0.76,0.84,0.6,0.65,0.65,0.68,0.77,1,1,1,1,1,1,1,0,0,1,0,1,Chong Nonsi,Surasak,Sala Daeng,Sathon Toll Plaza,Surawong Toll Plaza,Chong Nonsi,Surasak,Sala Daeng,Sathon Toll Plaza,Surawong Toll Plaza,0.81,0.92,1.3,1.4,1.8
Jewelry Trade Center,Bang Rak,13.721682300000001,100.5194583,87238,1,56,629.0,0.82,194118,132,23,1.5,1.6,1.6,1.6,1.8,0.61,0.82,0.84,0.86,0.92,0.51,0.53,0.58,0.63,0.64,1,1,1,1,0,0,0,0,0,1,1,0,Surasak,Sathon Toll Plaza,Saphan Taksin,Surawong Toll Plaza,Chan Toll Plaza,Surasak,Sathon Toll Plaza,Saphan Taksin,Surawong Toll Plaza,Chan Toll Plaza,0.5,0.59,0.98,1.0,1.4
Klass Condo Silom,Bang Rak,13.725639000000001,100.53158499999999,1764,1,8,176.0,0.96,201111,133,5,1.1,1.4,1.5,2.3,2.5,0.73,0.79,1.0,1.3,1.4,0.73,0.74,0.75,0.75,0.79,1,1,1,1,1,1,1,1,0,0,0,0,Chong Nonsi,Sala Daeng,Si Lom,Saphan Sawang Toll Plaza,Sathon Toll Plaza,Chong Nonsi,Sala Daeng,Si Lom,Saphan Sawang Toll Plaza,Sathon Toll Plaza,0.47,0.66,1.2,2.0,2.1
Life @ Sathorn 10,Bang Rak,13.722662099999999,100.5274385,2228,1,27,286.0,0.21,138140,134,9,0.87,1.9,2.0,2.2,2.4,0.35,0.6,0.66,0.7,0.8,0.51,0.51,0.54,0.57,0.62,1,1,1,1,1,1,1,1,1,0,0,0,Chong Nonsi,Surasak,Sathon Toll Plaza,Sala Daeng,Surawong Toll Plaza,Chong Nonsi,Surasak,Sathon Toll Plaza,Sala Daeng,Surawong Toll Plaza,0.66,0.88,1.3,1.3,1.9
M Silom,Bang Rak,13.7271577,100.52744720000001,2112,1,53,161.0,0.98,207615,135,6,1.2,1.2,1.3,1.9,1.9,0.86,1.1,1.3,1.3,1.3,0.93,1.1,1.1,1.1,1.2,1,1,1,1,1,0,1,1,0,0,0,0,Chong Nonsi,Sala Daeng,Sam Yan,Surawong Toll Plaza,Saphan Sawang Toll Plaza,Chong Nonsi,Sala Daeng,Sam Yan,Surawong Toll Plaza,Saphan Sawang Toll Plaza,0.57,0.97,1.1,1.6,1.6
Noble Revo Silom,Bang Rak,13.719562,100.519452,2334,1,32,319.0,0.7,161882,136,3,1.3,1.6,1.7,1.7,1.7,0.53,0.65,0.67,0.7,0.76,0.32,0.34,0.39,0.44,0.45,1,1,1,1,1,1,1,1,0,0,0,0,Surasak,Sathon Toll Plaza,Saphan Taksin,Chan Toll Plaza,Surawong Toll Plaza,Surasak,Sathon Toll Plaza,Saphan Taksin,Chan Toll Plaza,Surawong Toll Plaza,0.31,0.4,0.79,1.2,1.2
Pabhada Silom,Bang Rak,13.722695499999999,100.5236127,1320,1,8,69.0,0.36,152209,137,12,1.4,2.0,2.0,2.0,2.1,0.47,0.56,0.65,0.68,0.87,0.54,0.7,0.71,0.74,0.76,1,1,1,1,1,1,1,0,0,0,0,0,Surasak,Sathon Toll Plaza,Chong Nonsi,Saphan Taksin,Surawong Toll Plaza,Surasak,Sathon Toll Plaza,Chong Nonsi,Saphan Taksin,Surawong Toll Plaza,0.63,1.1,1.2,1.5,1.5
Quad Silom,Bang Rak,13.723864,100.530176,1084,1,8,72.0,0.61,161723,138,9,0.75,1.7,1.8,2.4,2.5,0.43,0.77,0.95,1.1,1.1,0.39,0.39,0.51,0.51,0.54,1,1,1,1,1,0,1,1,0,0,0,0,Chong Nonsi,Sala Daeng,Si Lom,Sathon Toll Plaza,Surawong Toll Plaza,Chong Nonsi,Sala Daeng,Si Lom,Sathon Toll Plaza,Surawong Toll Plaza,0.15,0.96,1.5,1.7,2.1
Saladaeng Colonnade,Bang Rak,13.726697099999999,100.536753,4763,1,7,81.0,0.7,229055,139,21,1.3,1.6,1.8,1.8,1.9,0.65,0.65,0.74,0.88,1.0,0.52,0.53,0.55,0.57,0.6,1,1,1,1,1,1,1,0,0,0,1,1,Si Lom,Sala Daeng,Chong Nonsi,Rama 4-2 Toll Plaza,Rama 4-1 Toll Plaza,Si Lom,Sala Daeng,Chong Nonsi,Rama 4-2 Toll Plaza,Rama 4-1 Toll Plaza,0.66,0.72,1.1,2.0,2.1
Saladaeng Residences,Bang Rak,13.725248,100.538176,2336,1,25,132.0,0.97,247191,140,8,1.5,1.6,2.0,2.1,2.2,0.56,0.56,0.67,1.2,1.3,0.43,0.46,0.48,0.5,0.54,1,1,1,1,1,1,1,1,0,0,0,1,Lumphini,Si Lom,Sala Daeng,Rama 4-2 Toll Plaza,Rama 4-1 Toll Plaza,Lumphini,Si Lom,Sala Daeng,Rama 4-2 Toll Plaza,Rama 4-1 Toll Plaza,0.87,0.94,1.0,1.8,1.8
Siamese Surawong,Bang Rak,13.729847400000002,100.5277762,2447,1,20,206.0,1.3,155272,141,4,0.79,0.88,1.5,1.8,1.8,0.88,0.89,1.2,1.2,1.4,0.66,0.67,0.67,0.67,0.7,1,1,1,1,1,0,1,1,0,0,0,0,Sam Yan,Chong Nonsi,Sala Daeng,Saphan Sawang Toll Plaza,Surawong Toll Plaza,Sam Yan,Chong Nonsi,Sala Daeng,Saphan Sawang Toll Plaza,Surawong Toll Plaza,0.62,0.82,0.92,1.3,1.6
Silom Grand Terrace,Bang Rak,13.728048999999999,100.536114,2950,1,21,226.0,0.53,184480,142,14,1.1,1.6,1.6,1.7,1.7,0.71,0.81,0.81,0.85,0.88,0.36,0.68,0.72,0.72,0.73,1,1,1,1,1,0,1,1,1,1,0,0,Si Lom,Sala Daeng,Chong Nonsi,Rama 4-2 Toll Plaza,Saphan Sawang Toll Plaza,Si Lom,Sala Daeng,Chong Nonsi,Rama 4-2 Toll Plaza,Saphan Sawang Toll Plaza,0.5,0.56,1.1,2.1,2.1
Silom Suite,Bang Rak,13.721378,100.5278004,15478,1,37,281.0,0.061,120137,143,22,0.72,1.9,2.0,2.1,2.1,0.2,0.45,0.51,0.55,0.65,0.36,0.36,0.39,0.43,0.48,1,1,1,1,1,0,1,0,0,0,0,0,Chong Nonsi,Surasak,Sathon Toll Plaza,Sala Daeng,Chan Toll Plaza,Chong Nonsi,Surasak,Sathon Toll Plaza,Sala Daeng,Chan Toll Plaza,0.52,0.73,1.2,1.5,2.0
Silom Terrace,Bang Rak,13.727075,100.53459000000001,2004,1,8,155.0,0.73,161765,144,17,1.3,1.5,1.8,1.8,1.9,0.68,0.91,1.0,1.0,1.1,0.56,0.56,0.62,0.69,0.75,1,1,1,1,1,1,1,0,0,0,0,0,Sala Daeng,Si Lom,Chong Nonsi,Rama 4-2 Toll Plaza,Saphan Sawang Toll Plaza,Sala Daeng,Si Lom,Chong Nonsi,Rama 4-2 Toll Plaza,Saphan Sawang Toll Plaza,0.53,0.7,0.9,2.3,2.3
State Tower,Bang Rak,13.722195999999999,100.51683000000004,8612,1,68,1700.0,1.2,113217,145,18,1.2,1.2,1.2,1.4,1.5,0.75,0.82,0.84,0.91,0.93,0.57,0.7,0.85,0.87,0.9,1,1,1,1,1,0,1,0,0,1,1,0,Surawong Toll Plaza,Surasak,Sathon Toll Plaza,Saphan Taksin,Chong Nonsi,Surawong Toll Plaza,Surasak,Sathon Toll Plaza,Saphan Taksin,Chong Nonsi,0.7,0.84,0.94,1.3,1.6
Supalai Elite Surawong,Bang Rak,13.730497,100.5233933,3820,1,31,277.0,1.4,131633,146,0,0.98,0.98,1.1,1.1,1.2,0.97,0.97,1.1,1.1,1.3,0.84,0.84,0.85,0.85,0.01,1,1,1,1,1,1,1,1,0,0,0,0,Sam Yan,Sam Yan,Saphan Sawang Toll Plaza,Saphan Sawang Toll Plaza,Surawong Toll Plaza,Sam Yan,Sam Yan,Saphan Sawang Toll Plaza,Saphan Sawang Toll Plaza,Surawong Toll Plaza,0.9,0.9,0.93,0.93,1.1
Surawong City Resort,Bang Rak,13.728585800000001,100.52401040000001,1432,1,8,116.0,1.2,97020,147,8,1.1,1.2,1.4,1.4,1.4,1.2,1.3,1.3,1.3,1.3,1.0,1.0,1.0,1.0,1.1,1,1,1,1,0,0,1,1,0,0,0,0,Sam Yan,Chong Nonsi,Saphan Sawang Toll Plaza,Surawong Toll Plaza,Sala Daeng,Sam Yan,Chong Nonsi,Saphan Sawang Toll Plaza,Surawong Toll Plaza,Sala Daeng,0.98,1.0,1.1,1.2,1.4
The Address Sathorn,Bang Rak,13.722864800000002,100.525813,5524,1,40,562.0,0.46,200621,148,7,1.1,2.0,2.0,2.2,2.2,0.57,0.6,0.62,0.7,0.85,0.46,0.53,0.63,0.64,0.67,1,1,1,1,1,1,1,1,0,0,0,0,Surasak,Chong Nonsi,Sathon Toll Plaza,Sala Daeng,Surawong Toll Plaza,Surasak,Chong Nonsi,Sathon Toll Plaza,Sala Daeng,Surawong Toll Plaza,0.78,0.92,1.2,1.4,1.7
The Bangkok Thanon Sub,Bang Rak,13.731138,100.527487,5920,3,8,155.0,1.5,132626,149,14,0.69,0.79,1.7,29.0,1.8,0.79,1.0,1.1,1.4,1.4,0.57,0.57,0.57,0.57,0.6,1,1,1,1,1,0,1,0,0,0,0,0,Sam Yan,Chong Nonsi,Sala Daeng,Saphan Sawang Toll Plaza,Surawong Toll Plaza,Sam Yan,Chong Nonsi,Sala Daeng,Saphan Sawang Toll Plaza,Surawong Toll Plaza,0.52,1.0,1.1,1.2,1.6
The Infinity,Bang Rak,13.723399800000003,100.52940229999999,3200,1,40,108.0,0.47,232741,150,11,0.63,1.7,1.8,2.3,2.3,0.3,0.79,0.82,0.91,0.95,0.27,0.27,0.39,0.46,0.49,1,1,1,1,1,1,1,1,1,1,1,1,Chong Nonsi,Surasak,Sala Daeng,Sathon Toll Plaza,Surawong Toll Plaza,Chong Nonsi,Surasak,Sala Daeng,Sathon Toll Plaza,Surawong Toll Plaza,0.43,1.1,1.1,1.6,2.1
The Legend Saladaeng,Bang Rak,13.725467000000002,100.537481,4,1,14,75.0,0.85,226675,151,14,1.5,1.5,1.9,1.9,2.1,0.49,0.49,0.6,1.0,1.2,0.36,0.39,0.41,0.44,0.47,1,1,1,1,1,0,0,1,0,0,0,0,Si Lom,Sala Daeng,Lumphini,Rama 4-2 Toll Plaza,Rama 4-1 Toll Plaza,Si Lom,Sala Daeng,Lumphini,Rama 4-2 Toll Plaza,Rama 4-1 Toll Plaza,0.82,0.88,0.94,1.8,1.9
The Ritz-Carlton Residences at MahaNakhon,Bang Rak,13.7237823,100.5277883,14400,1,77,200.0,0.48,409091,152,4,0.69,1.7,1.8,2.4,2.4,0.36,0.85,0.88,0.93,0.96,0.33,0.33,0.45,0.52,0.55,1,1,1,1,1,1,1,1,1,1,1,1,Chong Nonsi,Sala Daeng,Surasak,Sathon Toll Plaza,Surawong Toll Plaza,Chong Nonsi,Sala Daeng,Surasak,Sathon Toll Plaza,Surawong Toll Plaza,0.22,1.1,1.1,1.6,1.9
The Room Charoenkrung 30,Bang Rak,13.7287051,100.5158296,3156,1,23,211.0,1.0,189035,153,2,0.41,0.41,0.41,0.41,0.41,0.55,0.55,0.69,0.69,1.2,0.47,0.47,0.49,0.49,0.51,1,1,1,1,1,1,1,1,0,0,0,1,Surawong Toll Plaza,Surawong Toll Plaza,Saphan Sawang Toll Plaza,Saphan Sawang Toll Plaza,Hua Lamphong,Surawong Toll Plaza,Surawong Toll Plaza,Saphan Sawang Toll Plaza,Saphan Sawang Toll Plaza,Hua Lamphong,0.39,0.39,1.1,1.1,1.1
The Royal Saladaeng,Bang Rak,13.7257927,100.5371959,2400,1,29,71.0,0.84,180766,154,13,1.4,1.4,1.6,1.6,1.9,0.62,0.62,0.62,0.62,0.71,0.48,0.48,0.52,0.52,0.54,1,1,1,1,1,1,1,1,1,0,0,1,Si Lom,Si Lom,Sala Daeng,Sala Daeng,Lumphini,Si Lom,Si Lom,Sala Daeng,Sala Daeng,Lumphini,0.82,0.82,0.85,0.85,0.94
The Surawong,Bang Rak,13.729089300000002,100.5288087,960,1,8,52.0,1.6,124894,155,9,1.1,1.2,1.3,1.3,1.3,1.1,1.2,1.5,1.6,1.6,0.96,0.97,10.0,1.0,1.1,1,1,1,1,1,0,1,1,0,0,0,1,Sam Yan,Saphan Sawang Toll Plaza,Surawong Toll Plaza,Chong Nonsi,Hua Lamphong Toll Plaza,Sam Yan,Saphan Sawang Toll Plaza,Surawong Toll Plaza,Chong Nonsi,Hua Lamphong Toll Plaza,1.0,1.1,1.1,1.4,1.7
The Treasure Silom,Bang Rak,13.723724599999999,100.52329509999998,1176,1,8,71.0,0.47,114000,156,10,1.5,1.8,1.8,1.8,2.0,0.58,0.67,0.76,0.79,0.98,0.65,0.81,0.82,0.85,0.87,1,1,1,1,1,1,1,1,0,0,0,0,Surasak,Chong Nonsi,Sathon Toll Plaza,Surawong Toll Plaza,Saphan Taksin,Surasak,Chong Nonsi,Sathon Toll Plaza,Surawong Toll Plaza,Saphan Taksin,0.74,1.0,1.2,1.3,1.6
Vertiq,Bang Rak,13.732215,100.52557900000001,2468,1,23,196.0,1.6,150112,157,6,0.67,0.67,1.4,1.4,1.6,0.77,0.87,1.1,1.3,1.4,0.54,0.55,0.55,0.55,0.55,1,1,1,1,1,0,1,1,0,0,0,0,Sam Yan,Saphan Sawang Toll Plaza,Sala Daeng,Chong Nonsi,Surawong Toll Plaza,Sam Yan,Saphan Sawang Toll Plaza,Sala Daeng,Chong Nonsi,Surawong Toll Plaza,0.5,1.0,1.2,1.2,1.3
Wish @ Samyan,Bang Rak,13.732131099999998,100.5266194,3372,1,24,465.0,1.4,141824,158,8,0.54,0.64,29.0,1.7,1.7,0.65,0.93,0.93,1.2,1.3,0.42,0.42,0.42,0.42,0.46,1,1,1,1,1,1,1,1,1,1,1,1,Sam Yan,Saphan Sawang Toll Plaza,Sala Daeng,Chong Nonsi,Surawong Toll Plaza,Sam Yan,Saphan Sawang Toll Plaza,Sala Daeng,Chong Nonsi,Surawong Toll Plaza,0.37,1.1,1.1,1.1,1.4
333 Riverside,Bang Sue,13.80675724963851,100.52066780539828,18198,3,42,950.0,0.57,153285,159,5,0.56,0.56,0.56,1.4,1.4,0.21,0.21,0.21,0.38,0.38,0.36,0.36,0.36,0.39,0.39,1,1,1,1,1,0,1,0,0,0,0,0,Bang Sue,Bang Sue,Bang Sue,Yan Phahon Yothin Toll Plaza,Yan Phahon Yothin Toll Plaza,Bang Sue,Bang Sue,Bang Sue,Yan Phahon Yothin Toll Plaza,Yan Phahon Yothin Toll Plaza,2.3,2.3,2.3,3.4,3.4
Aspire Ratchada - Wongsawang,Bang Sue,13.830744699999999,100.52541070000001,9186,2,27,1232.0,2.0,97837,160,3,0.67,0.67,0.67,1.5,1.5,0.64,0.64,0.64,0.69,0.69,0.38,0.38,0.38,0.67,0.67,1,1,1,1,0,1,1,0,1,1,0,1,Prachachuen 1 Toll Plaza,Prachachuen 1 Toll Plaza,Prachachuen 1 Toll Plaza,Prachachuen Toll Plaza-Outbound,Prachachuen Toll Plaza-Inbound,Prachachuen 1 Toll Plaza,Prachachuen 1 Toll Plaza,Prachachuen 1 Toll Plaza,Prachachuen Toll Plaza-Outbound,Prachachuen Toll Plaza-Inbound,2.6,2.6,2.6,2.6,2.6
Centric Scene Ratchavipha,Bang Sue,13.830676,100.532587,9948,2,21,714.0,1.0,84390,161,9,0.54,0.73,1.0,2.9,3.1,1.1,1.2,1.4,1.6,1.6,0.42,0.68,0.73,0.73,0.73,1,1,1,1,1,1,1,1,0,0,0,0,Prachachuen 1 Toll Plaza,Prachachuen Toll Plaza-Outbound,Prachachuen Toll Plaza-Inbound,Phahon Yothin,Bang Sue,Prachachuen 1 Toll Plaza,Prachachuen Toll Plaza-Outbound,Prachachuen Toll Plaza-Inbound,Phahon Yothin,Bang Sue,1.7,1.7,1.7,5.3,5.7
Chewathai Interchange,Bang Sue,13.806335999999998,100.5298214,2850,1,26,279.0,0.94,139505,162,4,0.068,0.068,0.17,0.17,0.42,0.64,0.64,0.64,0.64,0.68,0.13,0.13,0.39,0.39,0.44,1,1,1,1,1,0,1,1,0,0,0,0,Bang Sue,Bang Sue,Yan Phahon Yothin Toll Plaza,Yan Phahon Yothin Toll Plaza,Kamphaeng Phet,Bang Sue,Bang Sue,Yan Phahon Yothin Toll Plaza,Yan Phahon Yothin Toll Plaza,Kamphaeng Phet,1.1,1.1,2.2,2.2,2.8
Chewathai Residence Bang Pho,Bang Sue,13.8063499,100.52246240000001,2377,1,24,172.0,0.25,136235,163,2,0.17,0.17,0.17,1.0,1.0,0.19,0.19,0.19,0.34,0.34,0.17,0.17,0.17,0.17,0.17,1,1,1,1,1,1,1,1,0,0,0,0,Bang Sue,Bang Sue,Bang Sue,Yan Phahon Yothin Toll Plaza,Yan Phahon Yothin Toll Plaza,Bang Sue,Bang Sue,Bang Sue,Yan Phahon Yothin Toll Plaza,Yan Phahon Yothin Toll Plaza,1.9,1.9,1.9,3.1,3.1
Ideo Mobi Wongsawang - Interchange,Bang Sue,13.818788,100.532266,3622,1,30,559.0,2.1,135668,164,3,1.4,1.4,1.8,1.8,4.0,0.47,0.51,0.58,0.81,1.3,0.22,0.88,0.9,1.3,1.3,1,1,1,1,1,0,1,1,0,0,0,0,Ratchadaphisek Toll Plaza,Prachachuen 1 Toll Plaza,Bang Sue,Kamphaeng Phet,Chatuchak Park,Ratchadaphisek Toll Plaza,Prachachuen 1 Toll Plaza,Bang Sue,Kamphaeng Phet,Chatuchak Park,2.2,2.8,3.9,4.1,5.2
Lumpini Ville Prachachuen-Phongphet 2,Bang Sue,13.84561829117466,100.5425317896107,16000,2,32,1395.0,1.4,77481,165,6,1.1,1.0,1.2,1.5,2.0,0.43,0.51,0.69,0.82,2.2,0.18,0.23,0.33,0.4,0.56,1,1,1,1,1,0,1,1,1,1,0,0,Prachachuen 2 Toll Plaza,Prachachuen Toll Plaza-Inbound,Prachachuen Toll Plaza-Outbound,Bang Sue,Phahon Yothin,Prachachuen 2 Toll Plaza,Prachachuen Toll Plaza-Inbound,Prachachuen Toll Plaza-Outbound,Bang Sue,Phahon Yothin,1.8,1.8,2.1,5.3,5.5
Piboon Condoville,Bang Sue,13.8271051,100.5353468,5444,4,9,738.5,0.97,25443,166,12,0.54,0.54,0.54,0.54,1.1,0.44,0.44,0.44,0.44,0.77,0.71,0.71,0.71,0.71,0.91,1,1,1,1,0,0,0,0,0,1,0,0,Ratchadaphisek Toll Plaza,Ratchadaphisek Toll Plaza,Ratchadaphisek Toll Plaza,Ratchadaphisek Toll Plaza,Prachachuen 1 Toll Plaza,Ratchadaphisek Toll Plaza,Ratchadaphisek Toll Plaza,Ratchadaphisek Toll Plaza,Ratchadaphisek Toll Plaza,Prachachuen 1 Toll Plaza,1.2,1.2,1.2,1.2,1.6
Regent Home 20 Prachachuen 16,Bang Sue,13.816179,100.534624,7340,3,8,672.0,2.0,48515,167,6,1.4,1.4,1.5,2.0,5.9,0.59,0.69,0.8,0.002,0.94,0.36,0.84,0.91,1.3,1.5,1,1,1,1,1,0,1,0,0,0,0,0,Ratchadaphisek Toll Plaza,Yan Phahon Yothin Toll Plaza,Bang Sue,Kamphaeng Phet,Chatuchak Park,Ratchadaphisek Toll Plaza,Yan Phahon Yothin Toll Plaza,Bang Sue,Kamphaeng Phet,Chatuchak Park,2.1,3.4,3.7,3.9,5.0
Rich Park 2 @Taopoon Interchange,Bang Sue,13.806394699999998,100.5288936,64,1,26,734.0,0.69,100000,168,5,0.33,0.35,0.6,2.9,3.4,0.42,0.81,0.81,0.92,1.0,0.14,0.33,0.52,0.52,0.52,1,1,1,1,1,0,1,0,1,1,1,1,Yan Phahon Yothin Toll Plaza,Bang Sue,Kamphaeng Phet,Khlong Prapa 1 Toll Plaza,Saphan Khwai,Yan Phahon Yothin Toll Plaza,Bang Sue,Kamphaeng Phet,Khlong Prapa 1 Toll Plaza,Saphan Khwai,2.4,2.7,2.9,3.2,3.7
Richpark @ Bangson Station,Bang Sue,13.82274,100.532386,6072,1,27,820.0,1.8,84385,169,5,1.1,1.4,1.8,2.2,3.7,0.54,0.76,0.93,1.0,1.2,0.24,0.94,0.95,0.99,1.1,1,1,1,1,1,0,1,1,0,1,0,0,Ratchadaphisek Toll Plaza,Prachachuen 1 Toll Plaza,Prachachuen Toll Plaza-Outbound,Bang Sue,Chatuchak Park,Ratchadaphisek Toll Plaza,Prachachuen 1 Toll Plaza,Prachachuen Toll Plaza-Outbound,Bang Sue,Chatuchak Park,2.0,2.4,2.4,4.4,5.7
Supalai Veranda Ratchavipha - Prachachuen,Bang Sue,13.818338,100.535975,19020,1,29,1705.0,1.7,79714,170,2,1.4,1.6,1.7,2.1,5.6,0.61,0.88,0.9,0.002,0.99,0.35,0.83,1.2,1.5,1.5,1,1,1,1,1,0,1,1,1,0,0,1,Ratchadaphisek Toll Plaza,Prachachuen 1 Toll Plaza,Bang Sue,Mo Chit,Chatuchak Park,Ratchadaphisek Toll Plaza,Prachachuen 1 Toll Plaza,Bang Sue,Mo Chit,Chatuchak Park,1.8,2.4,3.7,4.9,5.0
Taopoon Mansion,Bang Sue,13.801889000000001,100.53589599999998,20737,3,15,1600.0,1.9,33368,171,27,0.89,0.89,1.1,2.9,2.9,0.55,0.57,0.57,0.61,0.89,0.028,0.061,0.65,0.69,0.92,1,1,1,1,1,0,1,0,0,1,0,0,Yan Phahon Yothin Toll Plaza,Bang Sue,Kamphaeng Phet,Khlong Prapa 1 Toll Plaza,Saphan Khwai,Yan Phahon Yothin Toll Plaza,Bang Sue,Kamphaeng Phet,Khlong Prapa 1 Toll Plaza,Saphan Khwai,1.3,1.6,1.8,2.1,2.7
The Parkland Ratchada - Wongsawang,Bang Sue,13.829043400000002,100.5274525,7212,1,33,743.0,1.7,83333,172,4,0.4,1.3,2.8,3.3,3.5,0.79,0.98,1.0,1.2,1.5,0.19,0.39,0.39,0.39,0.39,1,1,1,1,1,1,1,1,0,0,0,0,Prachachuen 1 Toll Plaza,Prachachuen Toll Plaza-Outbound,Prachachuen Toll Plaza-Inbound,Bang Sue,Phahon Yothin,Prachachuen 1 Toll Plaza,Prachachuen Toll Plaza-Outbound,Prachachuen Toll Plaza-Inbound,Bang Sue,Phahon Yothin,2.3,2.4,2.4,3.9,5.9
The Tree Interchange,Bang Sue,13.806403099999999,100.5251007,10220,2,40,1123.0,0.28,94227,173,5,0.11,0.73,0.76,2.5,3.2,0.47,0.63,0.74,0.99,1.2,0.11,0.11,0.11,0.16,0.26,1,1,1,1,1,0,1,1,0,0,0,1,Yan Phahon Yothin Toll Plaza,Bang Sue,Kamphaeng Phet,Khlong Prapa 1 Toll Plaza,Saphan Khwai,Yan Phahon Yothin Toll Plaza,Bang Sue,Kamphaeng Phet,Khlong Prapa 1 Toll Plaza,Saphan Khwai,2.8,3.1,3.3,3.6,4.2
The Tree Privata,Bang Sue,13.8009771,100.5213562,10236,8,5,392.0,0.88,96861,174,4,0.88,1.5,1.7,2.2,2.3,0.28,0.51,0.53,0.83,0.85,0.14,0.19,0.54,0.71,0.81,1,1,1,1,1,0,1,0,0,0,0,1,Khlong Prapa 1 Toll Plaza,Yan Phahon Yothin Toll Plaza,Bang Sue,Kamphaeng Phet,Khlong Prapa 2 Toll Plaza,Khlong Prapa 1 Toll Plaza,Yan Phahon Yothin Toll Plaza,Bang Sue,Kamphaeng Phet,Khlong Prapa 2 Toll Plaza,2.8,3.0,3.2,3.4,3.7
U Delight 2 @ Bang Sue Station,Bang Sue,13.8190008,100.53629620000001,4928,1,30,645.0,1.6,75238,175,7,1.6,1.6,1.6,1.6,1.6,0.53,0.53,0.53,0.82,0.82,0.51,0.51,0.51,0.64,0.64,1,1,1,1,1,1,1,1,0,0,0,0,Ratchadaphisek Toll Plaza,Ratchadaphisek Toll Plaza,Ratchadaphisek Toll Plaza,Prachachuen 1 Toll Plaza,Prachachuen 1 Toll Plaza,Ratchadaphisek Toll Plaza,Ratchadaphisek Toll Plaza,Ratchadaphisek Toll Plaza,Prachachuen 1 Toll Plaza,Prachachuen 1 Toll Plaza,1.7,1.7,1.7,2.3,2.3
U Delight 3 Prachachuen - Bang Sue,Bang Sue,13.8250825,100.53771540000001,8372,1,23,745.0,0.93,77049,176,6,0.93,1.6,2.1,2.4,2.8,0.25,0.32,0.4,1.3,2.0,0.67,0.97,0.97,1.1,101.0,1,1,1,1,1,1,1,1,0,0,0,0,Ratchadaphisek Toll Plaza,Prachachuen 1 Toll Plaza,Prachachuen Toll Plaza-Outbound,Bang Sue,Phahon Yothin,Ratchadaphisek Toll Plaza,Prachachuen 1 Toll Plaza,Prachachuen Toll Plaza-Outbound,Bang Sue,Phahon Yothin,1.0,1.6,1.6,3.0,5.1
U Delight @ Bang Sue Station,Bang Sue,13.8118339,100.5346262,5844,1,25,622.0,1.8,79442,177,9,0.7,0.7,0.7,0.7,0.89,0.52,0.52,0.52,0.52,1.1,0.55,0.55,0.55,0.55,0.79,1,1,1,1,1,1,1,1,1,1,0,0,Bang Sue,Bang Sue,Bang Sue,Bang Sue,Ratchadaphisek Toll Plaza,Bang Sue,Bang Sue,Bang Sue,Bang Sue,Ratchadaphisek Toll Plaza,1.6,1.6,1.6,1.6,2.6
Bangkhunnon Rimnam,Bangkok Noi,13.776791500000002,100.4588859,12080,2,9,402.0,3.7,16034,178,23,2.8,4.8,4.8,4.8,6.4,1.5,2.5,2.7,3.2,4.1,1.4,1.4,1.6,1.9,2.4,1,1,1,1,1,0,0,0,0,1,0,0,Bang Wa,Pho Nimit,Wutthakat,Yommarat Toll Plaza,Hua Lamphong Toll Plaza,Bang Wa,Pho Nimit,Wutthakat,Yommarat Toll Plaza,Hua Lamphong Toll Plaza,8.9,9.0,9.4,9.4,9.8
Bangkok Noi Waterside,Bangkok Noi,13.773017900000001,100.4704338,6405,2,8,319.0,2.4,33422,179,15,2.2,3.0,3.5,3.5,3.5,0.77,1.2,1.2,1.2,2.8,0.46,0.65,0.7,0.72,0.88,1,1,1,1,1,0,0,0,0,0,0,0,Wong Wian Yai,Yommarat Toll Plaza,Hua Lamphong Toll Plaza,Uruphong Toll Plaza,Bang Wa,Wong Wian Yai,Yommarat Toll Plaza,Hua Lamphong Toll Plaza,Uruphong Toll Plaza,Bang Wa,7.5,7.9,8.1,8.3,9.1
D Condo Charansanitwong,Bangkok Noi,13.770520999999999,100.469714,8652,2,8,445.0,2.0,84000,180,7,1.9,2.6,3.1,3.1,3.1,0.37,0.71,0.8,0.84,0.96,0.26,0.27,0.49,0.5,0.52,1,1,1,1,1,0,1,1,0,0,0,1,Wong Wian Yai,Yommarat Toll Plaza,Hua Lamphong Toll Plaza,Uruphong Toll Plaza,Bang Wa,Wong Wian Yai,Yommarat Toll Plaza,Hua Lamphong Toll Plaza,Uruphong Toll Plaza,Bang Wa,7.1,7.5,7.7,7.9,8.7
Pinklao Condominium,Bangkok Noi,13.7806113,100.4738895,11329,1,13,90.0,0.36,57122,181,35,1.6,1.6,1.6,1.7,2.7,0.25,0.96,1.4,1.9,2.3,0.69,0.74,0.87,1.3,1.3,1,1,1,1,1,0,1,0,0,0,0,0,Yommarat Toll Plaza,Uruphong Toll Plaza,Hua Lamphong,Khlong Prapa 2 Toll Plaza,Pho Nimit,Yommarat Toll Plaza,Uruphong Toll Plaza,Hua Lamphong,Khlong Prapa 2 Toll Plaza,Pho Nimit,7.6,8.0,8.3,9.0,10.0
Pracha Ruamjai Condo Town,Bangkok Noi,13.747076000000002,100.462533,10051,2,8,309.0,1.7,109512,182,22,1.5,1.5,1.8,2.1,2.4,1.1,2.0,2.2,2.3,3.2,1.0,1.1,1.7,1.8,12.0,0,1,0,1,1,0,1,0,0,1,0,0,Talat Phlu,Wutthakat,Hua Lamphong Toll Plaza,Surawong Toll Plaza,Saphan Sawang Toll Plaza,Talat Phlu,Wutthakat,Hua Lamphong Toll Plaza,Surawong Toll Plaza,Saphan Sawang Toll Plaza,5.0,6.3,7.3,7.7,7.9
The Trust Residence Pinklao,Bangkok Noi,13.7859628,100.46991009999999,10552,1,30,1399.0,0.5,72659,183,7,1.0,1.0,1.0,1.2,1.2,0.58,0.58,0.58,0.65,0.65,0.21,0.21,0.21,0.24,0.24,1,1,1,1,1,0,1,1,0,1,0,1,Yommarat Toll Plaza,Yommarat Toll Plaza,Yommarat Toll Plaza,Uruphong Toll Plaza,Uruphong Toll Plaza,Yommarat Toll Plaza,Yommarat Toll Plaza,Yommarat Toll Plaza,Uruphong Toll Plaza,Uruphong Toll Plaza,7.2,7.2,7.2,7.6,7.6
dBURA Pran Nok,Bangkok Noi,13.756735,100.47754599999999,5188,2,13,416.0,0.6,101325,184,5,0.43,0.58,1.1,1.1,1.4,0.15,0.55,0.65,0.73,0.81,0.084,0.1,0.37,0.39,0.43,1,1,1,1,1,0,1,1,1,0,0,0,Wong Wian Yai,Yommarat Toll Plaza,Hua Lamphong Toll Plaza,Uruphong Toll Plaza,Bang Wa,Wong Wian Yai,Yommarat Toll Plaza,Hua Lamphong Toll Plaza,Uruphong Toll Plaza,Bang Wa,5.0,5.2,5.7,5.7,8.5
City Home Tha-Phra Intersection,Bangkok Yai,13.72869,100.473954,5120,1,23,610.0,1.4,62500,185,9,1.2,1.6,1.9,2.0,2.1,0.14,0.18,0.47,0.68,0.7,0.004,0.53,0.68,12.0,1.4,1,1,1,1,1,0,1,1,0,1,0,0,Talat Phlu,Wutthakat,Surawong Toll Plaza,Hua Lamphong Toll Plaza,Saphan Sawang Toll Plaza,Talat Phlu,Wutthakat,Surawong Toll Plaza,Hua Lamphong Toll Plaza,Saphan Sawang Toll Plaza,1.8,3.2,5.3,5.7,6.0
Baan Eua Arthorn Buengkum,Bueng Kum,13.787311800000001,100.67002120000001,25651,18,5,788.0,1.4,16124,186,9,0.39,1.5,0.1,2.2,2.3,0.39,0.55,2.0,1.1,1.8,0.003,0.002,0.39,0.39,0.52,0,1,1,1,0,0,0,0,0,1,0,0,Yothin Phatthana Toll Plaza,Ram Inthra Toll Plaza,Thap Chang Toll Plaza-Inbound,Thap Chang Toll Plaza-Outbound,Ram Inthra Toll Plaza 1,Yothin Phatthana Toll Plaza,Ram Inthra Toll Plaza,Thap Chang Toll Plaza-Inbound,Thap Chang Toll Plaza-Outbound,Ram Inthra Toll Plaza 1,4.2,4.4,6.0,6.2,6.2
Baan Navatara,Bueng Kum,13.8253451,100.6301789,19124,6,8,1019.0,3.9,69697,187,9,0.39,0.95,0.95,2.3,2.3,1.6,1.6,1.9,2.1,2.5,0.48,0.6,0.69,0.9,0.98,1,1,1,1,1,1,1,0,0,1,1,0,Yothin Phatthana Toll Plaza,Ram Inthra Toll Plaza,Ram Inthra Toll Plaza 1,Lat Phrao,Ratchadaphisek,Yothin Phatthana Toll Plaza,Ram Inthra Toll Plaza,Ram Inthra Toll Plaza 1,Lat Phrao,Ratchadaphisek,1.3,1.7,4.4,8.2,8.7
I CONDO Sukhapiban 2,Bueng Kum,13.783051,100.671011,16016,5,8,867.0,3.0,55484,188,6,0.1,1.5,1.5,1.9,3.0,0.72,0.78,0.9,1.1,1.4,0.11,0.76,0.85,1.2,1.2,1,1,1,1,1,0,1,1,0,0,0,1,Thap Chang Toll Plaza-Inbound,Thap Chang Toll Plaza-Outbound,Yothin Phatthana Toll Plaza,Sutthisan,Huai Khwang,Thap Chang Toll Plaza-Inbound,Thap Chang Toll Plaza-Outbound,Yothin Phatthana Toll Plaza,Sutthisan,Huai Khwang,5.2,5.4,10.0,13.0,13.0
Incio,Bueng Kum,13.776670999999999,100.662234,9804,5,8,238.0,3.0,54171,189,5,0.1,2.5,2.6,2.9,3.0,0.59,0.61,0.7,0.8,0.94,1.1,2.0,2.0,3.0,3.0,1,1,1,1,1,0,1,0,0,1,0,0,Thap Chang Toll Plaza-Inbound,Thap Chang Toll Plaza-Outbound,Lat Phrao Toll Plaza,Sutthisan,Huai Khwang,Thap Chang Toll Plaza-Inbound,Thap Chang Toll Plaza-Outbound,Lat Phrao Toll Plaza,Sutthisan,Huai Khwang,6.3,6.5,7.6,11.0,12.0
Lumpini Condo Town Nida - Serithai,Bueng Kum,13.775785999999998,100.658302,10400,4,8,593.0,3.0,57242,190,7,1.5,2.1,2.7,0.1,2.9,0.37,0.57,0.7,0.93,0.97,0.8,1.1,1.3,2.0,1.5,1,1,1,1,0,0,1,0,1,1,0,1,Thap Chang Toll Plaza-Inbound,Thap Chang Toll Plaza-Outbound,Lat Phrao Toll Plaza,Sutthisan,Huai Khwang,Thap Chang Toll Plaza-Inbound,Thap Chang Toll Plaza-Outbound,Lat Phrao Toll Plaza,Sutthisan,Huai Khwang,6.7,6.9,7.3,11.0,11.0
Lumpini Park Nawamin-Sriburapha,Bueng Kum,13.7938872,100.6519342,24000,7,15,1831.0,0.53,79491,191,3,2.2,2.2,2.2,2.4,2.4,1.3,1.3,1.3,1.5,1.5,0.59,0.59,0.59,0.6,0.6,1,1,1,1,1,0,1,1,0,1,0,0,Sutthisan,Sutthisan,Sutthisan,Ratchadaphisek,Ratchadaphisek,Sutthisan,Sutthisan,Sutthisan,Ratchadaphisek,Ratchadaphisek,1.4,1.4,1.4,1.8,1.8
Plum Condo Nawamin,Bueng Kum,13.8238813,100.65849920000001,7552,3,8,711.0,0.52,48333,192,6,1.0,1.5,2.0,2.6,4.1,1.0,1.8,2.0,2.5,2.5,0.001,0.31,0.31,0.52,0.55,1,1,1,1,0,0,1,1,0,1,0,0,Ram Inthra Toll Plaza,Yothin Phatthana Toll Plaza,Ram Inthra Toll Plaza 1,Lat Phrao,Ratchadaphisek,Ram Inthra Toll Plaza,Yothin Phatthana Toll Plaza,Ram Inthra Toll Plaza 1,Lat Phrao,Ratchadaphisek,4.4,4.5,5.4,12.0,12.0
SPN Residence,Bueng Kum,13.7988781,100.6435063,2619,1,5,63.0,3.3,20295,193,13,0.32,1.4,2.6,3.5,4.0,0.62,0.83,0.98,1.2,1.2,0.61,0.81,0.81,0.83,0.97,1,1,1,1,1,0,1,0,0,1,0,0,Yothin Phatthana Toll Plaza,Ram Inthra Toll Plaza,Lat Phrao Toll Plaza,Sutthisan,Ratchadaphisek,Yothin Phatthana Toll Plaza,Ram Inthra Toll Plaza,Lat Phrao Toll Plaza,Sutthisan,Ratchadaphisek,4.6,5.2,5.6,11.0,11.0
624 Condolette Ratchada 36,Chatuchak,13.822003699999998,100.5767084,7296,3,8,486.0,2.3,64649,194,6,1.4,1.4,1.9,1.9,2.2,0.7,0.82,1.0,1.1,1.5,0.75,0.78,0.79,0.8,0.82,1,1,1,1,0,0,1,1,0,0,0,0,Lat Phrao,Ratchadaphisek,Lat Phrao Toll Plaza-Inbound,Phahon Yothin,Lat Phrao Toll Plaza-Outbound,Lat Phrao,Ratchadaphisek,Lat Phrao Toll Plaza-Inbound,Phahon Yothin,Lat Phrao Toll Plaza-Outbound,2.3,2.7,2.9,2.9,3.0
Ables Ladprao 27,Chatuchak,13.8044891,100.5783568,976,2,8,154.0,2.5,78559,195,8,0.78,0.78,4.0,4.0,2.2,0.87,0.87,0.98,0.98,1.3,0.45,0.45,0.48,0.48,0.55,1,1,1,1,1,0,1,0,1,0,0,1,Lat Phrao,Lat Phrao,Ratchadaphisek,Ratchadaphisek,Ratchadaphisek,Lat Phrao,Lat Phrao,Ratchadaphisek,Ratchadaphisek,Ratchadaphisek,0.83,0.83,1.2,1.2,1.3
Abstracts Phahonyothin Park,Chatuchak,13.818451800000002,100.5632192,33600,3,34,3036.0,2.7,106897,196,7,0.93,1.1,1.2,1.3,1.3,1.4,1.4,1.4,1.5,1.6,0.76,0.95,1.2,1.2,1.3,1,1,1,1,1,1,1,1,1,0,0,1,Phahon Yothin,Lat Phrao Toll Plaza-Inbound,Lat Phrao Toll Plaza-Outbound,Lat Phrao,Chatuchak Park,Phahon Yothin,Lat Phrao Toll Plaza-Inbound,Lat Phrao Toll Plaza-Outbound,Lat Phrao,Chatuchak Park,1.2,1.5,1.5,1.8,2.5
Astra Condominium,Chatuchak,13.817282,100.577895,852,1,8,56.0,3.0,63958,197,8,1.7,1.7,1.8,2.0,2.0,0.26,0.52,0.52,0.55,1.5,0.3,0.42,0.47,0.58,0.63,0,0,0,1,0,0,1,0,0,1,0,1,Lat Phrao,Ratchadaphisek,Phahon Yothin,Lat Phrao Toll Plaza-Inbound,Lat Phrao Toll Plaza-Outbound,Lat Phrao,Ratchadaphisek,Phahon Yothin,Lat Phrao Toll Plaza-Inbound,Lat Phrao Toll Plaza-Outbound,1.8,2.2,3.0,3.3,3.8
BTS Residence,Chatuchak,13.795992000000002,100.558595,4889,1,25,302.0,1.3,70695,198,6,0.44,1.3,1.3,1.8,2.1,0.64,1.7,1.8,1.8,1.8,0.52,0.57,0.69,0.71,0.75,1,1,1,1,1,1,1,0,0,0,0,0,Sutthisan Toll Plaza,Saphan Khwai,Mo Chit,Chatuchak Park,Yan Phahon Yothin Toll Plaza,Sutthisan Toll Plaza,Saphan Khwai,Mo Chit,Chatuchak Park,Yan Phahon Yothin Toll Plaza,0.61,1.7,1.7,1.8,2.8
Baan Phrayapirom-Ratchada,Chatuchak,13.8208115,100.58714559999999,16661,5,8,1087.0,4.0,16315,199,22,1.1,1.2,1.9,2.4,2.4,0.93,1.2,1.2,1.4,1.7,0.27,0.41,0.42,0.62,0.65,1,1,1,1,0,0,0,0,0,1,0,1,Lat Phrao,Ratchadaphisek,Ratchadaphisek,Lat Phrao Toll Plaza-Inbound,Ratchadaphisek 2 Toll Plaza,Lat Phrao,Ratchadaphisek,Ratchadaphisek,Lat Phrao Toll Plaza-Inbound,Ratchadaphisek 2 Toll Plaza,3.1,3.5,3.6,4.1,4.3
Baan Ratchayothin,Chatuchak,13.8266614,100.581428,7452,1,10,223.0,2.3,27779,200,25,1.7,2.1,2.1,2.3,2.4,1.2,1.2,1.3,1.4,1.6,0.36,0.45,0.47,0.86,0.87,1,1,1,1,1,0,1,0,0,1,0,1,Lat Phrao,Lat Phrao Toll Plaza-Inbound,Ratchadaphisek 1 Toll Plaza,Phahon Yothin,Ratchadaphisek 2 Toll Plaza,Lat Phrao,Lat Phrao Toll Plaza-Inbound,Ratchadaphisek 1 Toll Plaza,Phahon Yothin,Ratchadaphisek 2 Toll Plaza,3.2,3.4,3.4,3.4,3.5
Baan Suan Ratchada,Chatuchak,13.821421599999999,100.58081390000001,6601,5,7,98.0,2.9,42870,201,25,1.6,1.6,1.9,1.9,2.4,0.52,0.58,0.67,1.3,1.4,0.18,0.24,0.29,0.33,0.34,1,1,1,1,1,0,0,0,0,1,0,1,Lat Phrao,Ratchadaphisek,Phahon Yothin,Lat Phrao Toll Plaza-Inbound,Ratchadaphisek 2 Toll Plaza,Lat Phrao,Ratchadaphisek,Phahon Yothin,Lat Phrao Toll Plaza-Inbound,Ratchadaphisek 2 Toll Plaza,2.5,3.0,3.3,3.3,3.5
Baan Vipavee,Chatuchak,13.795141699999999,100.56495759999999,6759,1,8,140.0,1.5,36295,202,20,1.2,1.2,1.3,1.8,1.9,1.2,1.2,1.4,1.5,1.5,0.19,0.25,0.4,0.41,0.41,1,1,1,1,1,0,1,0,1,1,1,1,Sutthisan Toll Plaza,Ratchadaphisek,Ratchadaphisek,Sutthisan,Din Daeng 1 Toll Plaza Don Mueang Toll Way,Sutthisan Toll Plaza,Ratchadaphisek,Ratchadaphisek,Sutthisan,Din Daeng 1 Toll Plaza Don Mueang Toll Way,1.1,1.4,1.4,2.5,2.9
Bangkok Feliz Major Ratchayothin,Chatuchak,13.829386999999999,100.57015,1488,1,8,79.0,0.92,90412,203,10,0.44,0.44,0.47,0.51,0.76,0.14,0.2,0.59,0.82,0.83,0.061,0.14,0.2,0.2,0.2,1,1,1,1,1,0,1,1,0,0,0,1,Ratchadaphisek 1 Toll Plaza,Lat Phrao Toll Plaza-Inbound,Phahon Yothin,Ratchadaphisek 2 Toll Plaza,Chatuchak Park,Ratchadaphisek 1 Toll Plaza,Lat Phrao Toll Plaza-Inbound,Phahon Yothin,Ratchadaphisek 2 Toll Plaza,Chatuchak Park,2.0,2.0,2.1,2.1,3.4
Bangkok Feliz Vibhavadi 30,Chatuchak,13.823053,100.563052,1596,1,8,154.0,3.3,105329,204,6,1.5,1.5,1.6,2.0,2.3,0.47,0.47,0.003,0.92,1.2,0.29,0.31,0.37,1.1,1.4,1,1,1,1,1,0,0,1,0,0,0,0,Lat Phrao Toll Plaza-Inbound,Lat Phrao Toll Plaza-Outbound,Phahon Yothin,Ratchadaphisek 2 Toll Plaza,Chatuchak Park,Lat Phrao Toll Plaza-Inbound,Lat Phrao Toll Plaza-Outbound,Phahon Yothin,Ratchadaphisek 2 Toll Plaza,Chatuchak Park,1.3,1.4,1.8,2.0,3.1
Benjasri Vibhavadi,Chatuchak,13.8464973,100.563138,11004,1,20,273.0,1.8,42768,205,26,1.9,2.4,2.7,3.5,3.7,0.76,1.4,1.4,1.6,1.8,0.12,1.4,1.8,2.0,2.0,1,1,1,1,0,0,0,0,0,0,0,0,Bang Khen Toll Plaza,Ratchadaphisek 1 Toll Plaza,Ratchadaphisek 2 Toll Plaza,Phahon Yothin,Chatuchak Park,Bang Khen Toll Plaza,Ratchadaphisek 1 Toll Plaza,Ratchadaphisek 2 Toll Plaza,Phahon Yothin,Chatuchak Park,0.82,2.0,2.0,4.4,5.6
Bridge Phaholyothin 37,Chatuchak,13.8328,100.569919,6000,2,8,308.0,0.62,95144,206,11,0.11,0.19,0.44,0.56,0.86,0.23,0.25,0.48,0.54,0.55,0.083,0.096,0.18,0.2,0.3,1,1,1,1,1,0,1,0,1,1,0,1,Ratchadaphisek 1 Toll Plaza,Ratchadaphisek 2 Toll Plaza,Phahon Yothin,Bang Khen Toll Plaza,Chatuchak Park,Ratchadaphisek 1 Toll Plaza,Ratchadaphisek 2 Toll Plaza,Phahon Yothin,Bang Khen Toll Plaza,Chatuchak Park,2.3,2.4,2.5,3.5,3.8
C Place Ladprao 18,Chatuchak,13.802864999999999,100.57015200000001,1280,1,8,54.0,2.3,69000,207,13,1.2,1.3,1.3,1.4,1.7,0.24,0.37,0.98,1.1,1.4,0.018,0.76,0.81,0.83,0.98,1,1,1,1,1,0,1,1,0,0,0,1,Lat Phrao,Ratchadaphisek,Ratchadaphisek,Sutthisan Toll Plaza,Lat Phrao Toll Plaza-Inbound,Lat Phrao,Ratchadaphisek,Ratchadaphisek,Sutthisan Toll Plaza,Lat Phrao Toll Plaza-Inbound,0.7,0.94,1.0,2.0,2.4
Century Park,Chatuchak,13.806501,100.565842,19836,1,8,223.5,2.9,40843,208,24,0.66,1.3,1.3,1.5,1.7,0.7,1.3,1.3,1.4,1.8,0.67,0.69,0.85,0.92,0.92,1,1,1,1,1,0,0,0,0,1,0,1,Lat Phrao,Phahon Yothin,Sutthisan Toll Plaza,Lat Phrao Toll Plaza-Outbound,Lat Phrao Toll Plaza-Inbound,Lat Phrao,Phahon Yothin,Sutthisan Toll Plaza,Lat Phrao Toll Plaza-Outbound,Lat Phrao Toll Plaza-Inbound,1.5,1.8,2.0,2.0,2.3
Chapter One The Campus Kaset,Chatuchak,13.838473800000001,100.5747426,126400,7,8,678.0,2.0,119090,209,4,1.1,1.1,1.1,2.1,2.1,1.3,1.3,1.3,1.4,1.4,0.65,0.65,0.65,0.97,0.97,1,1,1,1,1,0,1,1,0,0,0,0,Ratchadaphisek 1 Toll Plaza,Ratchadaphisek 1 Toll Plaza,Ratchadaphisek 1 Toll Plaza,Ratchadaphisek 2 Toll Plaza,Ratchadaphisek 2 Toll Plaza,Ratchadaphisek 1 Toll Plaza,Ratchadaphisek 1 Toll Plaza,Ratchadaphisek 1 Toll Plaza,Ratchadaphisek 2 Toll Plaza,Ratchadaphisek 2 Toll Plaza,2.6,2.6,2.6,2.7,2.7
Chateau In Town Major Ratchayothin 2,Chatuchak,13.8316772,100.5753858,2280,1,8,79.0,0.92,86595,210,7,0.77,1.0,1.1,1.1,1.1,0.35,0.46,0.78,0.85,1.0,0.53,0.71,0.75,0.78,0.84,1,1,1,1,1,0,1,1,0,1,0,0,Lat Phrao Toll Plaza-Inbound,Phahon Yothin,Ratchadaphisek 1 Toll Plaza,Ratchadaphisek 2 Toll Plaza,Lat Phrao,Lat Phrao Toll Plaza-Inbound,Phahon Yothin,Ratchadaphisek 1 Toll Plaza,Ratchadaphisek 2 Toll Plaza,Lat Phrao,2.7,2.7,2.8,2.8,4.1
Chateau In Town Phahonyothin 32,Chatuchak,13.8346029,100.57944870000001,2348,1,8,207.0,0.81,84054,211,6,0.66,0.66,0.66,0.66,0.66,0.4,0.4,0.4,0.4,0.5,0.22,0.22,0.22,0.22,0.32,1,1,1,1,1,0,1,0,1,0,0,1,Ratchadaphisek 1 Toll Plaza,Ratchadaphisek 1 Toll Plaza,Ratchadaphisek 1 Toll Plaza,Ratchadaphisek 1 Toll Plaza,Phahon Yothin,Ratchadaphisek 1 Toll Plaza,Ratchadaphisek 1 Toll Plaza,Ratchadaphisek 1 Toll Plaza,Ratchadaphisek 1 Toll Plaza,Phahon Yothin,3.2,3.2,3.2,3.2,3.3
Chateau In Town Ratchada 36,Chatuchak,13.821032,100.588484,1532,1,7,79.0,4.0,36667,212,12,1.3,1.3,2.1,2.5,2.5,1.1,1.3,1.4,1.8,1.9,0.42,0.55,0.57,0.76,0.79,1,1,1,1,0,0,0,0,0,1,0,0,Lat Phrao,Ratchadaphisek,Ratchadaphisek,Lat Phrao Toll Plaza-Inbound,Ratchadaphisek 2 Toll Plaza,Lat Phrao,Ratchadaphisek,Ratchadaphisek,Lat Phrao Toll Plaza-Inbound,Ratchadaphisek 2 Toll Plaza,3.2,3.6,3.7,4.2,4.4
Chateau In Town Vibhavadi 30,Chatuchak,13.823278,100.5631512,780,1,8,79.0,2.2,87167,213,7,1.1,1.2,1.2,1.2,1.3,0.67,0.74,0.96,0.96,0.003,0.33,0.42,0.45,0.59,0.71,1,1,1,1,1,0,1,1,0,0,0,0,Lat Phrao Toll Plaza-Inbound,Phahon Yothin,Lat Phrao Toll Plaza-Outbound,Ratchadaphisek 2 Toll Plaza,Chatuchak Park,Lat Phrao Toll Plaza-Inbound,Phahon Yothin,Lat Phrao Toll Plaza-Outbound,Ratchadaphisek 2 Toll Plaza,Chatuchak Park,1.1,1.4,1.4,2.3,2.7
Condare Maneeya,Chatuchak,13.8025742,100.56266049999999,6714,1,5,68.0,1.8,44660,214,26,0.1,0.1,0.82,1.5,1.6,0.78,0.85,1.2,1.3,1.4,0.1,0.47,0.6,0.65,0.76,1,1,1,1,1,0,0,0,0,0,0,0,Sutthisan Toll Plaza,Chatuchak Park,Lat Phrao,Lat Phrao Toll Plaza-Outbound,Mo Chit,Sutthisan Toll Plaza,Chatuchak Park,Lat Phrao,Lat Phrao Toll Plaza-Outbound,Mo Chit,0.83,1.8,1.8,1.8,1.9
Condo One Ladprao 15,Chatuchak,13.808976999999999,100.570525,1235,1,8,76.0,2.8,85894,215,10,0.93,1.3,1.3,1.4,1.8,0.95,1.1,1.2,1.3,1.5,0.28,0.41,0.43,0.46,0.002,1,1,1,1,1,0,1,0,1,1,0,1,Lat Phrao,Ratchadaphisek,Phahon Yothin,Lat Phrao Toll Plaza-Inbound,Lat Phrao Toll Plaza-Outbound,Lat Phrao,Ratchadaphisek,Phahon Yothin,Lat Phrao Toll Plaza-Inbound,Lat Phrao Toll Plaza-Outbound,0.53,1.4,1.7,2.0,2.4
Condo One Ladprao 18,Chatuchak,13.80485,100.5700374,2924,1,9,142.0,2.5,65022,216,10,1.2,1.2,1.4,1.4,1.4,0.39,0.39,0.53,0.53,1.1,0.018,0.018,0.63,0.63,0.67,1,1,1,1,1,0,1,0,0,1,0,1,Lat Phrao,Lat Phrao,Ratchadaphisek,Ratchadaphisek,Ratchadaphisek,Lat Phrao,Lat Phrao,Ratchadaphisek,Ratchadaphisek,Ratchadaphisek,0.8,0.8,1.1,1.1,1.1
Condo One Ladprao Station,Chatuchak,13.807806,100.56970600000001,2340,1,8,123.0,2.7,72754,217,10,0.87,1.1,1.1,1.7,1.7,0.73,0.86,1.1,1.1,1.3,0.26,0.35,0.018,0.41,0.002,1,1,1,1,0,0,1,1,0,0,0,0,Lat Phrao,Ratchadaphisek,Ratchadaphisek,Lat Phrao Toll Plaza-Inbound,Lat Phrao Toll Plaza-Outbound,Lat Phrao,Ratchadaphisek,Ratchadaphisek,Lat Phrao Toll Plaza-Inbound,Lat Phrao Toll Plaza-Outbound,0.47,1.3,1.4,1.9,2.2
Condo U Ratchayothin,Chatuchak,13.834783100000001,100.58085390000001,6176,2,8,394.0,1.0,76898,218,5,0.56,0.86,1.1,1.1,1.6,0.45,0.61,0.83,1.1,1.1,0.43,0.85,0.94,0.96,0.98,1,1,1,1,1,0,1,1,0,1,0,0,Ratchadaphisek 1 Toll Plaza,Phahon Yothin,Ratchadaphisek 2 Toll Plaza,Lat Phrao,Bang Khen Toll Plaza,Ratchadaphisek 1 Toll Plaza,Phahon Yothin,Ratchadaphisek 2 Toll Plaza,Lat Phrao,Bang Khen Toll Plaza,3.4,3.5,3.5,4.4,4.6
Ease Ratchada,Chatuchak,13.817792,100.579421,1232,1,7,108.0,3.1,65957,219,10,1.5,1.5,1.9,2.1,2.1,0.12,0.63,0.63,0.68,1.3,0.21,0.27,0.38,0.44,0.57,1,1,1,1,0,0,0,0,0,0,0,0,Lat Phrao,Ratchadaphisek,Phahon Yothin,Lat Phrao Toll Plaza-Inbound,Ratchadaphisek 2 Toll Plaza,Lat Phrao,Ratchadaphisek,Phahon Yothin,Lat Phrao Toll Plaza-Inbound,Ratchadaphisek 2 Toll Plaza,2.0,2.4,3.1,3.4,3.7
Elephant Tower,Chatuchak,13.825455999999999,100.5672842,71750,1,32,362.0,1.3,67585,220,22,0.37,0.37,0.89,0.92,1.2,0.49,0.62,0.63,1.2,1.3,0.34,0.36,0.37,0.37,0.37,1,1,1,1,1,1,1,1,1,0,0,0,Lat Phrao Toll Plaza-Inbound,Phahon Yothin,Ratchadaphisek 1 Toll Plaza,Ratchadaphisek 2 Toll Plaza,Chatuchak Park,Lat Phrao Toll Plaza-Inbound,Phahon Yothin,Ratchadaphisek 1 Toll Plaza,Ratchadaphisek 2 Toll Plaza,Chatuchak Park,1.5,1.5,1.9,2.0,2.8
Equinox,Chatuchak,13.809591199999998,100.5580046,5168,2,50,490.0,2.3,137500,221,5,0.69,0.78,0.91,0.92,0.99,0.48,0.88,1.1,1.3,1.5,0.26,0.65,0.65,0.69,0.7,1,1,1,1,1,0,1,1,1,1,1,1,Phahon Yothin,Chatuchak Park,Mo Chit,Lat Phrao Toll Plaza-Outbound,Lat Phrao Toll Plaza-Inbound,Phahon Yothin,Chatuchak Park,Mo Chit,Lat Phrao Toll Plaza-Outbound,Lat Phrao Toll Plaza-Inbound,0.6,0.8,0.92,0.97,1.1
G One Condo,Chatuchak,13.8160149,100.5724257,1220,1,8,98.0,2.2,60217,222,11,1.2,1.2,1.5,1.5,1.5,0.81,1.3,1.4,1.5,1.7,0.44,0.57,0.69,0.73,0.85,1,1,1,1,1,1,1,0,0,0,0,1,Lat Phrao Toll Plaza-Inbound,Phahon Yothin,Lat Phrao Toll Plaza-Outbound,Lat Phrao,Ratchadaphisek 2 Toll Plaza,Lat Phrao Toll Plaza-Inbound,Phahon Yothin,Lat Phrao Toll Plaza-Outbound,Lat Phrao,Ratchadaphisek 2 Toll Plaza,1.6,1.7,1.8,2.2,2.9
Haus 23 Ratchada-Ladprao,Chatuchak,13.805310999999998,100.57581400000001,2453,1,27,236.0,2.2,102727,223,6,0.38,1.8,1.8,2.3,2.3,0.84,0.89,1.0,1.1,1.2,0.014,0.042,0.34,0.41,0.82,1,1,1,1,1,1,1,1,0,0,0,1,Lat Phrao,Ratchadaphisek,Ratchadaphisek,Lat Phrao Toll Plaza-Inbound,Sutthisan Toll Plaza,Lat Phrao,Ratchadaphisek,Ratchadaphisek,Lat Phrao Toll Plaza-Inbound,Sutthisan Toll Plaza,0.38,0.79,0.89,2.5,2.9
Hope and Guy Condo Town,Chatuchak,13.8166168,100.56763070000001,800,1,7,60.0,3.2,59358,224,12,0.69,0.81,0.85,0.87,1.0,1.1,1.1,1.3,1.5,1.6,0.54,0.56,0.65,0.69,0.69,1,1,1,1,0,0,0,0,0,1,0,0,Phahon Yothin,Lat Phrao Toll Plaza-Inbound,Lat Phrao Toll Plaza-Outbound,Lat Phrao,Chatuchak Park,Phahon Yothin,Lat Phrao Toll Plaza-Inbound,Lat Phrao Toll Plaza-Outbound,Lat Phrao,Chatuchak Park,0.89,1.2,1.2,1.8,2.2
Ideo Ladprao 17,Chatuchak,13.8066019,100.57285959999999,5600,2,8,339.0,2.4,100000,225,10,0.53,0.53,0.53,0.53,1.4,0.62,0.62,0.62,0.62,1.1,0.036,0.036,0.036,0.036,0.1,1,1,1,1,1,0,1,1,0,0,0,0,Lat Phrao,Lat Phrao,Lat Phrao,Lat Phrao,Ratchadaphisek,Lat Phrao,Lat Phrao,Lat Phrao,Lat Phrao,Ratchadaphisek,0.16,0.16,0.16,0.16,0.99
Ideo Ladprao 5,Chatuchak,13.810623000000001,100.56585799999999,4000,1,24,418.0,3.1,103627,226,9,0.57,0.69,0.77,0.93,1.1,0.6,0.81,0.81,1.3,1.4,0.27,0.31,0.32,0.32,0.002,1,1,1,1,1,0,1,1,1,1,0,1,Phahon Yothin,Lat Phrao,Lat Phrao Toll Plaza-Inbound,Lat Phrao Toll Plaza-Outbound,Chatuchak Park,Phahon Yothin,Lat Phrao,Lat Phrao Toll Plaza-Inbound,Lat Phrao Toll Plaza-Outbound,Chatuchak Park,0.97,0.99,1.3,1.7,2.0
J.W. City Ratchada 32,Chatuchak,13.816789499999999,100.5875195,3496,2,8,154.0,4.0,51982,227,10,0.75,0.75,0.77,0.77,1.5,0.54,0.54,0.84,0.84,1.3,0.15,0.15,0.26,0.26,0.51,1,1,1,1,0,0,1,0,0,0,0,1,Lat Phrao,Lat Phrao,Ratchadaphisek,Ratchadaphisek,Ratchadaphisek,Lat Phrao,Lat Phrao,Ratchadaphisek,Ratchadaphisek,Ratchadaphisek,2.6,2.6,3.0,3.0,3.1
LIB Ladprao 20,Chatuchak,13.804891,100.570934,1913,1,8,175.0,2.5,80749,228,6,1.1,1.5,1.5,1.5,1.5,0.47,0.6,1.2,1.3,1.4,0.018,0.55,0.62,0.63,0.69,1,1,1,1,1,0,1,1,0,0,0,1,Lat Phrao,Ratchadaphisek,Ratchadaphisek,Sutthisan Toll Plaza,Lat Phrao Toll Plaza-Inbound,Lat Phrao,Ratchadaphisek,Ratchadaphisek,Sutthisan Toll Plaza,Lat Phrao Toll Plaza-Inbound,0.68,1.2,1.2,2.2,2.2
La Maison  Phaholyothin 24,Chatuchak,13.820001999999999,100.568303,2936,1,21,366.0,2.3,41935,229,23,1.3,1.3,1.4,1.6,1.6,0.93,1.4,1.5,1.6,1.8,0.56,0.69,0.81,0.85,0.97,1,1,1,1,1,0,1,0,1,0,0,0,Phahon Yothin,Lat Phrao Toll Plaza-Inbound,Lat Phrao,Lat Phrao Toll Plaza-Outbound,Ratchadaphisek 2 Toll Plaza,Phahon Yothin,Lat Phrao Toll Plaza-Inbound,Lat Phrao,Lat Phrao Toll Plaza-Outbound,Ratchadaphisek 2 Toll Plaza,1.7,1.8,2.0,2.1,2.9
Levo Ladprao 18 Project 1,Chatuchak,13.805164000000001,100.569802,1384,1,8,129.0,2.5,82834,230,5,1.2,1.4,1.4,1.4,1.4,0.43,0.56,1.2,1.3,1.4,0.018,0.55,0.64,0.71,0.72,1,1,1,1,1,0,1,1,0,0,0,0,Lat Phrao,Ratchadaphisek,Ratchadaphisek,Sutthisan Toll Plaza,Lat Phrao Toll Plaza-Inbound,Lat Phrao,Ratchadaphisek,Ratchadaphisek,Sutthisan Toll Plaza,Lat Phrao Toll Plaza-Inbound,0.77,1.1,1.2,2.2,2.2
Life @ Ladprao 18,Chatuchak,13.807899800000001,100.57018609999999,4800,1,32,456.0,2.7,132500,231,8,0.82,0.82,0.82,0.82,1.1,0.8,0.8,0.8,0.8,0.94,0.28,0.28,0.28,0.28,0.3,1,1,1,1,1,1,1,1,1,1,0,1,Lat Phrao,Lat Phrao,Lat Phrao,Lat Phrao,Ratchadaphisek,Lat Phrao,Lat Phrao,Lat Phrao,Lat Phrao,Ratchadaphisek,0.43,0.43,0.43,0.43,1.3
Life @ Ratchada,Chatuchak,13.803741699999998,100.5776298,6400,2,12,474.0,2.3,83892,232,9,0.68,2.1,2.2,4.0,2.6,0.89,1.0,1.2,1.2,1.4,0.41,0.44,0.57,0.62,0.69,1,1,1,1,1,1,1,1,1,1,1,1,Lat Phrao,Ratchadaphisek,Ratchadaphisek,Lat Phrao Toll Plaza-Inbound,Lat Phrao Toll Plaza-Outbound,Lat Phrao,Ratchadaphisek,Ratchadaphisek,Lat Phrao Toll Plaza-Inbound,Lat Phrao Toll Plaza-Outbound,0.73,1.1,1.2,2.9,2.9
Lugano Ladprao 18,Chatuchak,13.803332000000001,100.56958399999999,1448,1,8,125.0,2.3,76316,233,6,1.2,1.2,1.2,1.3,1.7,0.26,0.29,0.99,1.1,1.3,0.018,0.78,0.82,0.84,0.94,1,1,1,1,1,0,1,1,0,0,0,1,Lat Phrao,Ratchadaphisek,Ratchadaphisek,Sutthisan Toll Plaza,Lat Phrao Toll Plaza-Inbound,Lat Phrao,Ratchadaphisek,Ratchadaphisek,Sutthisan Toll Plaza,Lat Phrao Toll Plaza-Inbound,0.72,0.96,1.0,1.9,2.4
Lumpini Place Ratchayothin,Chatuchak,13.830442300000001,100.5701125,21276,1,28,1827.0,0.7,99524,234,8,0.25,0.29,0.49,0.49,0.54,0.12,0.19,0.6,0.61,0.64,0.16,0.16,0.18,0.19,0.26,1,1,1,1,1,1,1,1,1,1,1,1,Ratchadaphisek 1 Toll Plaza,Lat Phrao Toll Plaza-Inbound,Phahon Yothin,Ratchadaphisek 2 Toll Plaza,Chatuchak Park,Ratchadaphisek 1 Toll Plaza,Lat Phrao Toll Plaza-Inbound,Phahon Yothin,Ratchadaphisek 2 Toll Plaza,Chatuchak Park,2.1,2.1,2.1,2.1,3.5
M Jatujak,Chatuchak,13.797460000000001,100.551105,6400,2,34,864.0,0.77,161563,235,1,0.69,0.74,0.77,0.78,1.7,0.51,0.61,1.2,1.7,1.9,0.31,0.64,0.64,0.64,0.67,1,1,1,1,1,1,1,1,1,1,0,1,Kamphaeng Phet,Saphan Khwai,Mo Chit,Sutthisan Toll Plaza,Yan Phahon Yothin Toll Plaza,Kamphaeng Phet,Saphan Khwai,Mo Chit,Sutthisan Toll Plaza,Yan Phahon Yothin Toll Plaza,0.46,0.51,0.62,1.5,1.8
M Ladprao,Chatuchak,13.816412699999997,100.5619832,3148,1,44,313.0,2.5,166564,236,5,0.28,0.34,0.46,0.48,0.48,0.55,0.63,0.81,0.92,1.0,0.38,0.38,0.4,0.48,0.48,1,1,1,1,1,0,1,1,0,0,0,1,Phahon Yothin,Lat Phrao Toll Plaza-Inbound,Lat Phrao Toll Plaza-Outbound,Chatuchak Park,Lat Phrao,Phahon Yothin,Lat Phrao Toll Plaza-Inbound,Lat Phrao Toll Plaza-Outbound,Chatuchak Park,Lat Phrao,0.37,0.67,1.1,1.7,2.0
Morning Side Heights Ratchada 30,Chatuchak,13.8095895,100.5763567,916,1,8,66.0,2.7,70000,237,9,0.87,2.3,2.3,2.4,2.8,0.64,1.3,1.3,1.4,1.4,0.57,0.6,0.87,0.89,0.93,1,1,1,1,1,1,1,1,0,1,1,1,Lat Phrao,Ratchadaphisek,Ratchadaphisek,Lat Phrao Toll Plaza-Inbound,Lat Phrao Toll Plaza-Outbound,Lat Phrao,Ratchadaphisek,Ratchadaphisek,Lat Phrao Toll Plaza-Inbound,Lat Phrao Toll Plaza-Outbound,0.91,1.3,1.4,3.0,3.0
Murraya Place Ladprao 27,Chatuchak,13.804201,100.57835390000001,944,1,8,79.0,2.5,59843,238,10,0.75,4.0,2.2,2.2,2.7,0.83,0.95,1.3,1.3,1.5,0.42,0.45,0.51,0.55,0.76,1,1,1,1,1,0,1,1,0,0,0,0,Lat Phrao,Ratchadaphisek,Ratchadaphisek,Lat Phrao Toll Plaza-Inbound,Lat Phrao Toll Plaza-Outbound,Lat Phrao,Ratchadaphisek,Ratchadaphisek,Lat Phrao Toll Plaza-Inbound,Lat Phrao Toll Plaza-Outbound,0.8,1.2,1.3,2.9,3.0
My Condo Ladprao 27,Chatuchak,13.805451000000001,100.578598,5720,2,8,378.0,2.6,65286,239,10,0.93,4.0,2.3,2.8,2.8,0.96,1.1,1.3,1.4,1.6,0.56,0.59,0.65,0.68,0.9,1,1,1,1,0,0,1,1,0,1,0,0,Lat Phrao,Ratchadaphisek,Ratchadaphisek,Lat Phrao Toll Plaza-Inbound,Sutthisan Toll Plaza,Lat Phrao,Ratchadaphisek,Ratchadaphisek,Lat Phrao Toll Plaza-Inbound,Sutthisan Toll Plaza,0.94,1.3,1.4,3.1,3.4
Pattanachat Suite,Chatuchak,13.7963687,100.55862309999999,4624,1,8,136.0,1.3,33032,240,21,0.4,1.3,1.3,1.8,2.1,0.6,1.7,1.7,1.7,1.8,0.47,0.53,0.65,0.67,0.71,1,1,1,1,0,0,0,0,0,0,0,1,Sutthisan Toll Plaza,Saphan Khwai,Mo Chit,Chatuchak Park,Yan Phahon Yothin Toll Plaza,Sutthisan Toll Plaza,Saphan Khwai,Mo Chit,Chatuchak Park,Yan Phahon Yothin Toll Plaza,0.56,1.6,1.6,1.7,2.8
Pete Ratchada Condominium,Chatuchak,13.8158753,100.5852689,4909,1,11,167.0,4.0,24429,241,25,1.1,1.1,1.9,2.4,2.8,0.89,0.99,1.5,1.5,1.5,0.3,0.61,0.82,0.87,0.97,1,1,1,1,1,0,1,0,0,1,1,1,Lat Phrao,Ratchadaphisek,Ratchadaphisek,Lat Phrao Toll Plaza-Inbound,Lat Phrao Toll Plaza-Outbound,Lat Phrao,Ratchadaphisek,Ratchadaphisek,Lat Phrao Toll Plaza-Inbound,Lat Phrao Toll Plaza-Outbound,2.7,3.2,3.3,4.2,4.7
Prasertsuk Place,Chatuchak,13.797393,100.564701,5200,1,8,303.0,1.4,47581,242,22,1.1,1.1,1.2,1.7,1.8,1.1,1.1,1.3,1.4,1.4,0.1,0.15,0.28,0.29,0.3,1,1,1,1,1,0,1,0,0,0,0,1,Sutthisan Toll Plaza,Ratchadaphisek,Ratchadaphisek,Mo Chit,Lat Phrao Toll Plaza-Outbound,Sutthisan Toll Plaza,Ratchadaphisek,Ratchadaphisek,Mo Chit,Lat Phrao Toll Plaza-Outbound,0.96,1.3,1.3,2.4,2.8
Premsiri Boutique Park,Chatuchak,13.840523000000001,100.58150400000001,16000,4,9,834.0,1.5,60032,243,11,0.42,1.6,1.7,1.7,2.0,1.0,1.4,1.6,1.7,2.0,0.38,0.85,1.3,1.4,1.4,1,1,1,1,1,0,1,1,0,1,1,1,Bang Khen Toll Plaza,Ratchadaphisek 1 Toll Plaza,Ratchadaphisek 2 Toll Plaza,Phahon Yothin,Lat Phrao,Bang Khen Toll Plaza,Ratchadaphisek 1 Toll Plaza,Ratchadaphisek 2 Toll Plaza,Phahon Yothin,Lat Phrao,4.0,4.2,4.2,4.3,5.3
Ratchada Pavilion,Chatuchak,13.811272,100.578686,2364,1,28,195.0,3.1,39134,244,25,1.3,2.2,2.2,2.7,2.7,0.93,1.0,1.2,1.2,1.8,0.81,0.99,1.0,1.0,1.1,1,1,1,1,1,0,1,0,0,0,0,1,Lat Phrao,Ratchadaphisek,Ratchadaphisek,Lat Phrao Toll Plaza-Inbound,Lat Phrao Toll Plaza-Outbound,Lat Phrao,Ratchadaphisek,Ratchadaphisek,Lat Phrao Toll Plaza-Inbound,Lat Phrao Toll Plaza-Outbound,1.4,1.8,1.9,3.5,3.8
Ratchada Ville,Chatuchak,13.8179771,100.5884472,5900,1,9,210.0,4.0,16744,245,23,0.51,0.53,1.3,1.8,2.2,0.3,1.1,1.2,1.4,1.6,0.15,0.47,0.47,0.48,0.51,1,1,1,1,0,0,0,0,0,1,0,0,Lat Phrao,Ratchadaphisek,Ratchadaphisek,Lat Phrao Toll Plaza-Inbound,Lat Phrao Toll Plaza-Outbound,Lat Phrao,Ratchadaphisek,Ratchadaphisek,Lat Phrao Toll Plaza-Inbound,Lat Phrao Toll Plaza-Outbound,2.9,3.3,3.4,4.4,4.9
Regent Home 6 Prachacheun,Chatuchak,13.8252025,100.5456791,12000,5,8,1031.0,1.5,31452,246,10,1.5,2.2,1.0,3.4,5.3,0.76,0.89,1.0,1.8,1.9,1.2,1.5,1.6,101.0,1.6,1,1,1,1,1,0,1,1,0,0,0,0,Ratchadaphisek Toll Plaza,Prachachuen 1 Toll Plaza,Prachachuen Toll Plaza-Outbound,Bang Sue,Phahon Yothin,Ratchadaphisek Toll Plaza,Prachachuen 1 Toll Plaza,Prachachuen Toll Plaza-Outbound,Bang Sue,Phahon Yothin,1.5,2.1,2.2,3.6,5.7
SYM Vibha-Ladprao,Chatuchak,13.8069372,100.5580152,7248,1,29,728.0,2.0,96875,247,9,0.48,0.66,0.66,1.0,1.2,0.45,0.69,0.9,1.5,1.6,0.34,0.4,0.66,0.008,0.8,1,1,1,1,1,1,1,1,1,0,0,0,Sutthisan Toll Plaza,Phahon Yothin,Chatuchak Park,Mo Chit,Lat Phrao Toll Plaza-Outbound,Sutthisan Toll Plaza,Phahon Yothin,Chatuchak Park,Mo Chit,Lat Phrao Toll Plaza-Outbound,0.81,0.92,1.0,1.1,1.5
Sailom Suite,Chatuchak,13.833071400000001,100.5790261,18992,1,28,224.0,1.0,49242,248,19,0.86,0.88,1.1,1.2,1.6,0.57,0.77,0.88,1.1,1.2,0.43,0.85,0.94,0.95,0.98,1,1,1,1,1,1,1,0,0,0,0,1,Ratchadaphisek 1 Toll Plaza,Phahon Yothin,Ratchadaphisek 2 Toll Plaza,Bang Khen Toll Plaza,Lat Phrao,Ratchadaphisek 1 Toll Plaza,Phahon Yothin,Ratchadaphisek 2 Toll Plaza,Bang Khen Toll Plaza,Lat Phrao,3.2,3.3,3.3,4.0,4.4
Sarin Place,Chatuchak,13.830105999999999,100.564592,5632,1,30,285.0,1.5,69338,249,23,0.65,0.65,1.1,1.1,1.3,0.61,0.79,1.1,1.4,1.4,0.4,0.4,0.4,0.4,0.4,1,1,1,1,1,1,1,1,1,1,1,0,Ratchadaphisek 1 Toll Plaza,Ratchadaphisek 2 Toll Plaza,Lat Phrao Toll Plaza-Inbound,Phahon Yothin,Chatuchak Park,Ratchadaphisek 1 Toll Plaza,Ratchadaphisek 2 Toll Plaza,Lat Phrao Toll Plaza-Inbound,Phahon Yothin,Chatuchak Park,1.3,1.3,2.3,2.4,3.7
SiriMetro Ratchada-Vipawadee,Chatuchak,13.796048,100.564723,908,1,8,79.0,1.4,102247,250,8,1.0,1.0,1.2,1.6,1.8,1.1,1.1,1.3,1.3,1.4,0.13,0.19,0.26,0.27,0.27,1,1,1,1,1,0,1,1,0,0,0,0,Sutthisan Toll Plaza,Ratchadaphisek,Ratchadaphisek,Sutthisan,Din Daeng 1 Toll Plaza Don Mueang Toll Way,Sutthisan Toll Plaza,Ratchadaphisek,Ratchadaphisek,Sutthisan,Din Daeng 1 Toll Plaza Don Mueang Toll Way,0.94,1.3,1.4,2.4,2.8
Supalai City Resort Ratchayothin - Phaholyothin 32,Chatuchak,13.8344853,100.5787683,4798,2,8,322.0,0.78,77727,251,4,0.62,0.8,0.85,0.9,1.3,0.37,0.69,0.88,1.1,1.1,0.19,0.61,0.7,0.72,0.74,1,1,1,1,1,0,1,1,0,0,0,0,Ratchadaphisek 1 Toll Plaza,Phahon Yothin,Ratchadaphisek 2 Toll Plaza,Bang Khen Toll Plaza,Lat Phrao,Ratchadaphisek 1 Toll Plaza,Phahon Yothin,Ratchadaphisek 2 Toll Plaza,Bang Khen Toll Plaza,Lat Phrao,3.2,3.2,3.3,4.3,4.6
Supalai Park Kaset,Chatuchak,13.840430599999998,100.57996379999999,24800,2,26,1456.0,1.6,68182,252,9,0.59,1.8,1.8,1.8,2.1,1.2,1.8,1.8,2.1,2.3,0.55,1.0,1.4,1.6,1.6,1,1,1,1,1,0,1,1,0,1,1,1,Bang Khen Toll Plaza,Ratchadaphisek 1 Toll Plaza,Ratchadaphisek 2 Toll Plaza,Phahon Yothin,Lat Phrao,Bang Khen Toll Plaza,Ratchadaphisek 1 Toll Plaza,Ratchadaphisek 2 Toll Plaza,Phahon Yothin,Lat Phrao,4.2,4.3,4.4,4.5,5.4
Supalai Park Phaholyothin,Chatuchak,13.822725,100.564317,16632,3,33,828.0,3.5,68252,253,7,1.7,1.8,1.9,2.3,2.5,0.7,0.7,0.003,1.2,1.4,0.11,0.51,0.6,1.6,1.7,1,1,1,1,1,1,1,1,1,1,1,1,Lat Phrao Toll Plaza-Inbound,Lat Phrao Toll Plaza-Outbound,Phahon Yothin,Ratchadaphisek 2 Toll Plaza,Chatuchak Park,Lat Phrao Toll Plaza-Inbound,Lat Phrao Toll Plaza-Outbound,Phahon Yothin,Ratchadaphisek 2 Toll Plaza,Chatuchak Park,1.5,1.7,2.0,2.2,3.3
Supapong Place,Chatuchak,13.805075800000001,100.5810632,12803,1,4,194.0,4.0,56234,254,26,1.4,1.9,4.0,4.0,2.5,0.61,0.73,1.3,1.6,1.9,0.26,0.56,0.68,1.0,1.1,1,1,1,1,0,0,0,0,0,0,0,0,Lat Phrao,Ratchadaphisek,Ratchadaphisek,Lat Phrao Toll Plaza-Inbound,Lat Phrao Toll Plaza-Outbound,Lat Phrao,Ratchadaphisek,Ratchadaphisek,Lat Phrao Toll Plaza-Inbound,Lat Phrao Toll Plaza-Outbound,1.4,1.8,1.9,3.6,3.6
THE LINE Jatujak-Mochit,Chatuchak,13.806664000000001,100.556296,7580,1,43,841.0,1.9,201811,255,1,0.86,1.2,1.2,1.2,1.3,0.82,0.85,1.3,1.3,1.7,0.2,0.53,0.53,0.53,0.72,1,1,1,1,1,0,1,1,1,0,0,0,Chatuchak Park,Mo Chit,Phahon Yothin,Sutthisan Toll Plaza,Lat Phrao Toll Plaza-Outbound,Chatuchak Park,Mo Chit,Phahon Yothin,Sutthisan Toll Plaza,Lat Phrao Toll Plaza-Outbound,0.43,0.55,0.98,1.3,1.3
Tawana Residence,Chatuchak,13.82598,100.55911400000001,8773,2,9,248.0,2.5,35832,256,22,1.4,1.5,1.6,1.6,1.6,0.57,0.57,0.003,0.87,1.1,0.089,0.34,0.67,0.69,0.75,1,1,1,1,0,0,0,0,0,1,0,1,Lat Phrao Toll Plaza-Inbound,Ratchadaphisek 2 Toll Plaza,Ratchadaphisek 1 Toll Plaza,Phahon Yothin,Chatuchak Park,Lat Phrao Toll Plaza-Inbound,Ratchadaphisek 2 Toll Plaza,Ratchadaphisek 1 Toll Plaza,Phahon Yothin,Chatuchak Park,1.2,1.3,1.3,1.7,3.0
The Classy Ratchadaphisek 19,Chatuchak,13.801447400000002,100.5723497,692,1,8,49.0,2.0,62531,257,8,1.2,1.2,1.7,1.7,1.7,0.3,0.3,0.45,0.45,0.68,0.018,0.018,0.74,0.74,0.8,1,1,1,1,0,0,1,0,0,0,0,0,Ratchadaphisek,Ratchadaphisek,Lat Phrao,Lat Phrao,Ratchadaphisek,Ratchadaphisek,Ratchadaphisek,Lat Phrao,Lat Phrao,Ratchadaphisek,0.65,0.65,0.67,0.67,0.7
